station_idx,station_id,station_name,station_lat,station_lon,station_el,elevationUnit,mindate,maxdate,datacoverage
99,GHCND:USC00010063,"ADDISON, AL US",34.21096,-87.17838,239.6,METERS,1938-03-01,2024-03-08,1.0
100,GHCND:USC00010160,"ALEXANDER CITY, AL US",32.935,-85.95556,201.2,METERS,1969-10-01,2024-03-13,1.0
101,GHCND:USC00010178,"ALICEVILLE, AL US",33.1272,-88.155,59.4,METERS,1934-03-01,2024-01-31,1.0
103,GHCND:USC00010260,"LEXINGTON, AL US",34.96285,-87.37195,231.6,METERS,2004-01-01,2024-03-13,1.0
105,GHCND:USC00010390,"ATHENS, AL US",34.7752,-86.9508,210.0,METERS,1941-05-01,2024-03-13,1.0
106,GHCND:USC00010402,"ATMORE, AL US",31.182,-87.439,91.4,METERS,1940-03-01,2024-03-12,1.0
107,GHCND:USC00010425,"AUBURN NUMBER 2, AL US",32.5992,-85.4653,166.1,METERS,1996-01-01,2024-03-12,1.0
108,GHCND:USC00010505,"BANKHEAD LOCK AND DAM, AL US",33.4527,-87.3572,85.3,METERS,1957-02-01,2024-03-13,1.0
109,GHCND:USC00010583,"BAY MINETTE, AL US",30.884,-87.7852,82.6,METERS,1913-11-01,2024-03-12,1.0
110,GHCND:USC00010655,"BELLE MINA 2 N, AL US",34.6891,-86.8819,183.8,METERS,1950-01-01,2024-03-08,1.0
111,GHCND:USC00010764,"BESSEMER 3 WSW, AL US",33.39372,-87.00672,132.6,METERS,1977-01-01,2024-03-13,1.0
112,GHCND:USC00010823,"BILLINGSLEY, AL US",32.6624,-86.7244,134.1,METERS,1938-12-01,2024-03-12,0.7721
113,GHCND:USC00011080,"BREWTON 3 ENE, AL US",31.1413,-87.0486,52.7,METERS,1977-01-01,2024-03-08,1.0
116,GHCND:USC00011288,"CALERA, AL US",33.0944,-86.7455,161.5,METERS,1900-09-01,2024-03-12,1.0
118,GHCND:USC00011490,"CENTRE, AL US",34.15012,-85.6848,184.1,METERS,2002-01-01,2024-03-13,1.0
120,GHCND:USC00011620,"CHILDERSBURG WATER PLANT, AL US",33.28152,-86.34307,126.8,METERS,1957-01-01,2024-03-13,1.0
121,GHCND:USC00011694,"CLANTON, AL US",32.81597,-86.60447,179.8,METERS,1893-02-01,2024-03-13,1.0
122,GHCND:USC00011725,"CLAYTON, AL US",31.8709,-85.4501,173.4,METERS,1928-01-01,2024-03-11,1.0
124,GHCND:USC00012096,"CULLMAN 1.5SE KRESS FARMS, AL US",34.20667,-86.79989,246.9,METERS,1994-12-01,2024-02-22,1.0
125,GHCND:USC00012172,"DAUPHIN ISLAND NUMBER 2, AL US",30.2505,-88.0775,2.4,METERS,1975-08-01,2024-02-29,1.0
126,GHCND:USC00012209,"DECATUR 4 SE, AL US",34.57556,-86.93389,167.6,METERS,1998-12-01,2024-03-13,1.0
127,GHCND:USC00012245,"DEMOPOLIS LOCK AND DAM, AL US",32.51936,-87.87945,30.5,METERS,1951-07-01,2024-03-13,1.0
128,GHCND:USC00012350,"DORA, AL US",33.74778,-87.05861,143.3,METERS,2005-10-01,2024-01-16,0.7937
129,GHCND:USC00012377,"DOTHAN, AL US",31.1941,-85.3708,83.8,METERS,2003-03-01,2024-03-09,1.0
134,GHCND:USC00012813,"FAIRHOPE 2 NE, AL US",30.5468,-87.8807,7.0,METERS,1917-08-01,2024-03-04,1.0
135,GHCND:USC00012883,"FAYETTE, AL US",33.67955,-87.82993,100.9,METERS,1892-03-01,2024-03-13,1.0
136,GHCND:USC00013043,"FORT PAYNE, AL US",34.4406,-85.7236,279.5,METERS,1935-07-01,2024-03-13,1.0
138,GHCND:USC00013154,"GADSDEN, AL US",34.0219,-85.9878,172.2,METERS,1953-03-01,2024-03-13,1.0
139,GHCND:USC00013160,"GAINESVILLE LOCK, AL US",32.8347,-88.1341,38.1,METERS,1948-06-01,2024-03-13,1.0
140,GHCND:USC00013251,"GENEVA NUMBER 2, AL US",31.0383,-85.8708,44.2,METERS,1976-05-01,2024-03-13,1.0
142,GHCND:USC00013511,"GREENSBORO, AL US",32.69212,-87.57603,75.9,METERS,1890-02-01,2024-03-13,1.0
143,GHCND:USC00013519,"GREENVILLE, AL US",31.7901,-86.6087,104.2,METERS,1900-01-01,2024-02-29,1.0
144,GHCND:USC00013573,"GUNTERSVILLE, AL US",34.3344,-86.3297,176.2,METERS,1904-01-01,2024-03-13,1.0
145,GHCND:USC00013575,"GUNTERSVILLE NUMBER 2, AL US",34.3347,-86.3294,181.4,METERS,1995-11-01,2024-03-13,1.0
146,GHCND:USC00013620,"HALEYVILLE, AL US",34.2314,-87.6352,280.4,METERS,1902-07-01,2024-03-13,1.0
147,GHCND:USC00013645,"HAMILTON, AL US",34.13884,-87.99466,149.4,METERS,1962-01-01,2024-03-13,1.0
148,GHCND:USC00013655,"HANCEVILLE, AL US",34.06081,-86.79056,179.8,METERS,1985-01-01,2024-02-29,1.0
149,GHCND:USC00013761,"HEADLAND, AL US",31.38307,-85.36779,103.9,METERS,1950-01-01,2024-03-13,1.0
150,GHCND:USC00013775,"HEFLIN, AL US",33.64347,-85.60944,307.8,METERS,1956-01-01,2024-03-13,1.0
156,GHCND:USC00014080,"HURTSBORO, AL US",32.24635,-85.41399,122.5,METERS,1978-01-01,2024-02-13,1.0
157,GHCND:USC00014193,"JACKSON, AL US",31.5253,-87.9277,67.1,METERS,1961-10-01,2024-03-13,1.0
158,GHCND:USC00014209,"JACKSONVILLE, AL US",33.82585,-85.78115,192.0,METERS,1948-07-01,2024-03-13,1.0
159,GHCND:USC00014226,"JASPER, AL US",33.9048,-87.3154,148.1,METERS,1960-01-01,2024-03-13,1.0
162,GHCND:USC00014502,"LAFAYETTE 2 W, AL US",32.9069,-85.4336,225.6,METERS,1944-10-01,2024-02-27,1.0
164,GHCND:USC00014977,"MADISON 2 N, AL US",34.72694,-86.74556,231.6,METERS,2007-11-14,2024-03-14,0.9402
165,GHCND:USC00015121,"MARION JUNCTION 2 NE, AL US",32.4718,-87.23097,68.3,METERS,1950-02-01,2024-03-05,1.0
167,GHCND:USC00015172,"MATHEWS, AL US",32.2603,-86.0003,57.9,METERS,1956-08-01,2024-02-04,0.7042
169,GHCND:USC00015397,"MIDWAY, AL US",32.03474,-85.47396,125.6,METERS,1940-04-01,2024-03-11,1.0
173,GHCND:USC00015537,"MONTEVALLO, AL US",33.098,-86.8658,125.0,METERS,1893-12-01,2024-01-31,1.0
174,GHCND:USC00015553,"MONTGOMERY 6 SW, AL US",32.26,-86.218,68.6,METERS,1998-01-01,2024-03-13,1.0
175,GHCND:USC00015635,"MOULTON 2, AL US",34.4884,-87.299,189.6,METERS,1957-01-01,2024-03-13,1.0
180,GHCND:USC00016121,"ONEONTA, AL US",33.92633,-86.42123,333.8,METERS,1894-08-01,2024-03-13,1.0
181,GHCND:USC00016129,"OPELIKA, AL US",32.65924,-85.44979,191.1,METERS,1957-01-01,2024-03-13,1.0
182,GHCND:USC00016196,"OWENS CROSS ROADS 3 S, AL US",34.5528,-86.445,179.8,METERS,2004-01-01,2024-03-13,1.0
185,GHCND:USC00017020,"ROCKFORD 3 ESE, AL US",32.8711,-86.1758,182.9,METERS,1954-07-01,2024-01-31,1.0
186,GHCND:USC00017025,"ROCK MILLS, AL US",33.15822,-85.29071,230.1,METERS,1938-06-01,2024-03-02,1.0
187,GHCND:USC00017131,"RUSSELLVILLE NUMBER 2, AL US",34.51,-87.7319,253.0,METERS,1953-09-01,2024-03-13,1.0
188,GHCND:USC00017157,"SAINT BERNARD, AL US",34.17444,-86.81056,238.7,METERS,1907-07-01,2024-02-05,1.0
189,GHCND:USC00017207,"SAND MOUNT SUBSTATION, AL US",34.2877,-85.968,362.7,METERS,1949-01-01,2023-08-28,1.0
190,GHCND:USC00017304,"SCOTTSBORO, AL US",34.6736,-86.0536,187.5,METERS,1891-10-01,2024-03-13,1.0
191,GHCND:USC00017366,"SELMA, AL US",32.411,-87.0144,44.8,METERS,1895-01-01,2024-03-13,1.0
193,GHCND:USC00017999,"SYLACAUGA 4 NE, AL US",33.20537,-86.19497,153.6,METERS,1950-03-01,2024-03-13,1.0
194,GHCND:USC00018024,"TALLADEGA, AL US",33.41729,-86.13432,154.8,METERS,1888-02-01,2024-03-08,1.0
196,GHCND:USC00018209,"THORSBY EXPERIMENTAL STATION, AL US",32.9205,-86.6708,207.3,METERS,1957-01-01,2024-03-04,1.0
197,GHCND:USC00018323,"TROY, AL US",31.8075,-85.9722,165.2,METERS,1908-06-01,2024-02-20,1.0
198,GHCND:USC00018380,"TUSCALOOSA ACFD, AL US",33.2231,-87.6099,50.3,METERS,1994-12-01,2024-03-13,1.0
199,GHCND:USC00018385,"TUSCALOOSA OLIVER DAM, AL US",33.2108,-87.59322,44.2,METERS,1900-01-01,2024-03-14,1.0
202,GHCND:USC00018469,"VALLEY HEAD, AL US",34.5686,-85.6063,341.7,METERS,1893-01-01,2023-12-31,1.0
203,GHCND:USC00018517,"VERNON, AL US",33.74175,-88.12505,90.5,METERS,1938-03-01,2024-03-13,1.0
204,GHCND:USC00018673,"WARRIOR LOCK AND DAM, AL US",32.77472,-87.83056,33.5,METERS,1958-02-01,2024-03-13,1.0
205,GHCND:USC00018812,"VINEMONT 2 NNW, AL US",34.25889,-86.89881,280.4,METERS,2007-01-01,2024-03-13,1.0
206,GHCND:USC00018859,"WETUMPKA, AL US",32.5937,-86.1664,97.2,METERS,1893-01-01,2024-03-09,1.0
207,GHCND:USC00018998,"WINFIELD 2 SW, AL US",33.9107,-87.8469,158.5,METERS,1923-04-01,2024-03-07,1.0
208,GHCND:USC00099291,"WEST POINT, GA US",32.8861,-85.1838,175.3,METERS,1891-10-01,2023-06-26,1.0
209,GHCND:USR0000ABAN,"BANKHEAD ALABAMA, AL US",34.14,-87.3622,245.1,METERS,1998-06-01,2024-02-06,0.9439
210,GHCND:USR0000ABNS,"BON SECOUR ALABAMA, AL US",30.2528,-87.8125,4.6,METERS,2002-06-01,2024-02-06,0.9939
211,GHCND:USR0000ALIR,"LIRI ALABAMA, AL US",34.4978,-85.6292,365.8,METERS,1997-01-01,2024-02-06,0.7672
212,GHCND:USR0000AOKM,"OAKMULGEE ALABAMA, AL US",32.9572,-87.1706,110.6,METERS,1998-06-01,2024-02-06,0.9252
213,GHCND:USR0000AOPE,"OPEN POND FTS ALABAMA, AL US",31.0944,-86.5486,83.8,METERS,1998-06-01,2024-02-06,0.9485
214,GHCND:USR0000ASHK,"SHOAL CREEK ALABAMA, AL US",33.6472,-85.6344,276.8,METERS,2002-12-01,2024-02-06,1.0
215,GHCND:USR0000ATAL,"TALLADEGA ALABAMA, AL US",33.4411,-86.0811,182.9,METERS,1998-06-01,2024-02-06,0.9999
216,GHCND:USW00003856,"HUNTSVILLE INTNL AIRPORT, AL US",34.64406,-86.78615,190.0,METERS,1958-01-01,2024-03-14,1.0
217,GHCND:USW00003878,"TROY MUNICIPAL AIRPORT, AL US",31.85742,-86.01025,118.6,METERS,1969-04-01,2024-03-13,1.0
221,GHCND:USW00013838,"MOBILE DOWNTOWN AIRPORT, AL US",30.61465,-88.06301,4.9,METERS,1948-03-01,2024-03-13,1.0
222,GHCND:USW00013839,"DOTHAN REGIONAL AIRPORT, AL US",31.31767,-85.44324,112.1,METERS,1970-01-01,2024-03-13,1.0
223,GHCND:USW00013871,"ANNISTON METROPOLITAN AIRPORT, AL US",33.59043,-85.84788,181.8,METERS,1903-02-01,2024-03-13,1.0
224,GHCND:USW00013876,"BIRMINGHAM AIRPORT, AL US",33.56545,-86.7449,187.7,METERS,1930-01-01,2024-03-14,1.0
225,GHCND:USW00013894,"MOBILE REGIONAL AIRPORT, AL US",30.68819,-88.24598,65.5,METERS,1948-01-01,2024-03-14,1.0
226,GHCND:USW00013895,"MONTGOMERY AIRPORT, AL US",32.2997,-86.40745,66.2,METERS,1948-01-01,2024-03-14,1.0
227,GHCND:USW00013896,"MUSCLE SHOALS AIRPORT, AL US",34.74388,-87.59971,165.8,METERS,1940-01-01,2024-03-13,1.0
228,GHCND:USW00023801,"TROY 2 W, AL US",31.7901,-86.0004,143.9,METERS,2008-01-01,2024-03-13,1.0
229,GHCND:USW00023802,"THOMASVILLE 2 S, AL US",31.8814,-87.7367,106.7,METERS,2008-01-01,2024-03-13,1.0
230,GHCND:USW00053820,"EVERGREEN MIDDLETON FIELD, AL US",31.41912,-87.04844,79.1,METERS,1997-06-01,2024-03-13,1.0
231,GHCND:USW00053843,"ANDALUSIA OPP AIRPORT, AL US",31.30614,-86.39018,97.5,METERS,2006-09-01,2024-03-12,1.0
232,GHCND:USW00053852,"DECATUR PRYOR FIELD, AL US",34.65798,-86.94343,179.1,METERS,1996-11-01,2024-03-13,1.0
234,GHCND:USW00053864,"ALABASTER SHELBY CO AIRPORT ASOS, AL US",33.17835,-86.78178,172.5,METERS,1995-04-01,2024-03-14,1.0
235,GHCND:USW00063857,"GADSDEN 19 N, AL US",34.2851,-85.9621,351.1,METERS,2005-04-01,2024-03-13,1.0
236,GHCND:USW00063858,"SELMA 13 WNW, AL US",32.4567,-87.2422,58.8,METERS,2005-05-01,2024-03-13,1.0
237,GHCND:USW00063862,"VALLEY HEAD 1 SSW, AL US",34.5653,-85.6171,310.9,METERS,2006-05-01,2024-03-13,1.0
239,GHCND:USW00063867,"CULLMAN 3 ENE, AL US",34.1954,-86.7963,243.8,METERS,2006-05-01,2024-03-13,1.0
240,GHCND:USW00063868,"COURTLAND 2 WSW, AL US",34.6602,-87.3462,175.3,METERS,2006-05-01,2024-03-13,1.0
241,GHCND:USW00063869,"FAIRHOPE 3 NE, AL US",30.5485,-87.8757,29.0,METERS,2006-07-01,2024-03-12,1.0
243,GHCND:USW00063872,"EUFAULA WEEDON FIELD AIRPORT, AL US",31.95163,-85.13122,86.8,METERS,2006-01-01,2024-03-11,1.0
245,GHCND:USW00063874,"GREENVILLE MAC CRENSHAW MEMORIAL AIRPORT, AL US",31.84675,-86.6141,134.8,METERS,2006-01-01,2024-03-12,0.9392
246,GHCND:USW00063891,"CLANTON 2 NE, AL US",32.8516,-86.6115,178.0,METERS,2007-03-01,2024-03-13,1.0
247,GHCND:USW00063892,"GAINESVILLE 2 NE, AL US",32.8369,-88.1374,32.6,METERS,2007-03-01,2024-03-13,1.0
248,GHCND:USW00063893,"GREENSBORO 2 WNW, AL US",32.7169,-87.6226,85.3,METERS,2007-03-01,2024-03-13,1.0
249,GHCND:USW00063894,"MUSCLE SHOALS 2 N, AL US",34.7728,-87.6399,161.5,METERS,2007-04-01,2024-03-13,1.0
250,GHCND:USW00063895,"RUSSELLVILLE 4 SSE, AL US",34.4535,-87.7104,219.5,METERS,2006-08-01,2024-03-13,1.0
251,GHCND:USW00063896,"SCOTTSBORO 2 NE, AL US",34.6941,-85.9998,193.9,METERS,2006-08-01,2024-03-13,1.0
252,GHCND:USW00063897,"SELMA 6 SSE, AL US",32.3349,-86.9787,47.9,METERS,2007-03-01,2024-03-13,1.0
253,GHCND:USW00063899,"BREWTON 3 NNE, AL US",31.1449,-87.0518,51.8,METERS,2008-01-01,2024-03-13,1.0
254,GHCND:USW00073801,"NORTHPORT 2 S, AL US",33.2125,-87.5914,45.7,METERS,2009-05-01,2024-03-13,0.9997
255,GHCND:USW00073802,"HIGHLAND HOME 2 S, AL US",31.9155,-86.3115,187.1,METERS,2008-12-01,2024-03-13,1.0
256,GHCND:USW00073803,"TALLADEGA 10 NNE, AL US",33.5721,-86.0573,160.0,METERS,2008-12-01,2024-03-13,1.0
257,GHCND:USW00093806,"TUSCALOOSA AIRPORT ASOS, AL US",33.21217,-87.61552,45.3,METERS,1948-06-01,2024-03-13,1.0
439,GHCND:USC00500243,"ALYESKA, AK US",60.9583,-149.1108,82.9,METERS,1963-11-01,2024-03-13,1.0
440,GHCND:USC00500247,"AMBER LAKE, AK US",62.1925,-150.5033,136.9,METERS,2001-03-01,2024-03-13,1.0
441,GHCND:USC00500270,"ANAKTUVUK AUTO, AK US",68.16667,-151.76667,640.1,METERS,1953-01-01,2023-07-13,0.183
442,GHCND:USC00500275,"ANCHORAGE FORECAST OFFICE, AK US",61.1561,-149.9847,39.9,METERS,1998-01-01,2024-03-12,1.0
443,GHCND:USC00500281,"ANCHORAGE UPPER DEARMOUN, AK US",61.1025,-149.7169,406.9,METERS,2005-12-01,2024-03-09,1.0
446,GHCND:USC00500363,"ANNEX CREEK, AK US",58.3183,-134.1003,28.0,METERS,1917-01-01,2024-03-12,1.0
447,GHCND:USC00500433,"ATKA AIRPORT, AK US",52.22028,-174.20611,17.1,METERS,1916-10-01,2024-03-12,0.1545
448,GHCND:USC00500490,"AURORA, AK US",64.8552,-147.7216,135.0,METERS,2004-01-01,2024-03-13,1.0
451,GHCND:USC00500707,"BEN S FARM, AK US",61.5632,-149.1542,38.7,METERS,1969-01-01,2024-01-31,1.0
455,GHCND:USC00501220,"CAMPBELL CREEK SCIENCE CENTER, AK US",61.1638,-149.7777,78.6,METERS,2000-05-01,2024-02-23,1.0
456,GHCND:USC00501240,"CANNERY CREEK, AK US",61.0183,-147.5147,25.9,METERS,1979-05-01,2023-12-31,1.0
465,GHCND:USC00501684,"CHICKEN, AK US",64.0917,-141.9211,548.6,METERS,1911-01-01,2024-03-13,1.0
468,GHCND:USC00501987,"CIRCLE HOT SPRINGS, AK US",65.4939,-144.6422,262.1,METERS,1935-01-01,2024-03-13,1.0
471,GHCND:USC00502107,"COLLEGE OBSERVATORY, AK US",64.8603,-147.8484,182.0,METERS,1948-05-01,2024-03-12,1.0
477,GHCND:USC00502179,"CORDOVA WWTP, AK US",60.5358,-145.778,3.0,METERS,2004-05-01,2023-11-26,0.6405
478,GHCND:USC00502227,"CRAIG, AK US",55.4772,-133.1408,13.1,METERS,1936-10-01,2024-03-13,1.0
479,GHCND:USC00502339,"DELTA 6 N, AK US",64.1172,-145.7511,322.8,METERS,1996-01-01,2024-02-03,1.0
481,GHCND:USC00502352,"DELTA JUNCTION 20 SE, AK US",63.9647,-145.105,342.9,METERS,1980-11-01,2024-03-04,1.0
483,GHCND:USC00502568,"DRY CREEK, AK US",63.67459,-144.60409,413.0,METERS,1996-08-01,2024-03-13,1.0
484,GHCND:USC00502587,"DUTCH HARBOR, AK US",53.895,-166.5433,3.0,METERS,1915-05-01,2024-03-13,1.0
485,GHCND:USC00502607,"EAGLE, AK US",64.7856,-141.2036,259.1,METERS,1901-11-01,2024-03-13,0.9287
487,GHCND:USC00502642,"EAGLE RIVER NATURE CENTER, AK US",61.23446,-149.27091,158.5,METERS,1981-07-01,2024-03-07,1.0
488,GHCND:USC00502645,"EAGLE RIVER GAKONA CIRCLE, AK US",61.3193,-149.5435,172.8,METERS,2003-01-01,2024-03-10,1.0
489,GHCND:USC00502656,"EAGLE RIVER 5 SE, AK US",61.2968,-149.4399,151.8,METERS,1989-01-01,2024-02-27,1.0
491,GHCND:USC00502737,"EKLUTNA WTP, AK US",61.4495,-149.323,195.1,METERS,2001-03-01,2024-01-31,1.0
494,GHCND:USC00502871,"ESTER 5 NE, AK US",64.911,-147.9242,192.0,METERS,1997-12-01,2024-03-13,1.0
498,GHCND:USC00503160,"FORT KNOX MINE, AK US",65.0033,-147.3408,494.1,METERS,1997-12-01,2024-03-12,1.0
503,GHCND:USC00503212,"GALENA, AK US",64.7408,-156.8755,46.3,METERS,1996-09-01,2024-02-01,1.0
504,GHCND:USC00503275,"GILMORE CREEK, AK US",64.9766,-147.5211,288.0,METERS,1962-01-01,2024-03-13,1.0
506,GHCND:USC00503294,"GLACIER BAY, AK US",58.4561,-135.8692,13.7,METERS,1966-01-01,2023-12-30,1.0
508,GHCND:USC00503304,"GLENNALLEN KCAM, AK US",62.1086,-145.5331,421.5,METERS,1965-12-01,2024-03-13,1.0
510,GHCND:USC00503502,"HAINES NUMBER 2, AK US",59.23172,-135.46634,29.9,METERS,2000-01-01,2024-03-13,1.0
511,GHCND:USC00503504,"HAINES 40 NW, AK CA",59.4503,-136.3615,249.9,METERS,1989-01-01,2024-03-13,1.0
516,GHCND:USC00503605,"HIDDEN FALLS HACHRY, AK US",57.2177,-134.8769,6.7,METERS,1992-01-01,2024-01-31,1.0
520,GHCND:USC00503695,"HOONAH, AK US",58.1071,-135.4277,39.6,METERS,1941-05-01,2024-03-13,1.0
525,GHCND:USC00504103,"JUNEAU FORECAST OFFICE, AK US",58.4002,-134.5694,32.3,METERS,2001-12-01,2024-03-13,1.0
526,GHCND:USC00504107,"JUNEAU LENA POINT, AK US",58.3869,-134.7658,10.7,METERS,2000-01-01,2024-02-24,1.0
529,GHCND:USC00504165,"KALTAG AIRPORT, AK US",64.3208,-158.7326,52.6,METERS,1944-06-01,2024-03-12,0.1821
533,GHCND:USC00504621,"KEYSTONE RIDGE, AK US",64.9156,-148.2711,487.7,METERS,1996-01-01,2024-03-13,1.0
534,GHCND:USC00504812,"KITOI BAY, AK US",58.1913,-152.3722,18.3,METERS,1954-11-01,2023-12-31,1.0
537,GHCND:USC00504991,"KODIAK WWTP, AK US",57.8048,-152.3561,16.5,METERS,2005-01-01,2024-01-31,1.0
538,GHCND:USC00505136,"KUPARUK, AK US",70.3289,-149.6114,19.5,METERS,1983-01-01,2024-01-31,1.0
539,GHCND:USC00505464,"LAZY MOUNTAIN, AK US",61.6266,-149.0365,223.4,METERS,1984-01-01,2024-02-14,1.0
541,GHCND:USC00505519,"LITTLE PORT WALTER, AK US",56.383,-134.6497,4.3,METERS,1936-07-01,2024-03-13,1.0
543,GHCND:USC00505604,"MAIN BAY, AK US",60.5181,-148.0931,17.4,METERS,1982-10-01,2024-03-09,1.0
546,GHCND:USC00505733,"MATANUSKA EXPERIMENTAL FARM, AK US",61.5663,-149.2541,52.4,METERS,1917-07-01,2024-01-31,1.0
549,GHCND:USC00505778,"MCKINLEY PARK, AK US",63.7175,-148.9692,630.9,METERS,1923-01-01,2024-03-07,1.0
554,GHCND:USC00505881,"MINCHUMINA, AK US",63.9033,-152.2816,312.4,METERS,1945-01-01,2024-01-31,0.8197
555,GHCND:USC00505884,"MONASHKA CREEK DAM, AK US",57.8426,-152.4585,39.6,METERS,1909-09-01,2024-01-31,1.0
557,GHCND:USC00505894,"MOOSE PASS 3 NW, AK US",60.5029,-149.4261,150.0,METERS,1941-07-01,2023-12-31,1.0
559,GHCND:USC00506581,"NORTH POLE, AK US",64.7581,-147.3253,144.8,METERS,1968-10-01,2024-03-12,1.0
560,GHCND:USC00506870,"PALMER JOB CORPS, AK US",61.5888,-149.0992,65.8,METERS,1948-11-01,2024-01-27,1.0
562,GHCND:USC00507141,"PELICAN, AK US",57.9577,-136.2213,3.7,METERS,1967-01-01,2024-03-13,1.0
563,GHCND:USC00507442,"POINT LAY, AK US",69.73288,-163.00533,7.6,METERS,1941-09-01,2024-03-12,0.2235
565,GHCND:USC00507502,"PORTAGE GLACIER VISITOR CENTER, AK US",60.78351,-148.84839,32.5,METERS,1972-11-01,2024-03-12,1.0
566,GHCND:USC00507513,"PORT ALCAN, AK US",62.6211,-141.006,576.7,METERS,1985-09-01,2024-03-08,1.0
568,GHCND:USC00507570,"PORT ALSWORTH, AK US",60.2036,-154.3163,79.2,METERS,1960-01-01,2024-02-28,1.0
569,GHCND:USC00507738,"PORT SAN JUAN, AK US",60.0502,-148.0672,12.2,METERS,1980-01-01,2024-01-31,1.0
570,GHCND:USC00507783,"PUNTILLA, AK US",62.0911,-152.7349,566.3,METERS,1942-01-01,2024-03-13,1.0
578,GHCND:USC00508525,"SKAGWAY, AK US",59.4547,-135.3136,10.7,METERS,1898-11-01,2024-03-13,1.0
581,GHCND:USC00508584,"SNETTISHAM POWER PLANT, AK US",58.1421,-133.7385,8.8,METERS,1964-01-01,2024-03-13,1.0
583,GHCND:USC00508615,"SOLDOTNA 5 SSW, AK US",60.4194,-151.1336,54.9,METERS,2004-01-01,2024-02-29,1.0
593,GHCND:USC00509641,"UNIVERSITY EXPERIMENTAL STATION, AK US",64.8569,-147.861,144.8,METERS,1904-09-01,2024-01-31,1.0
596,GHCND:USC00509747,"WALLY NOERENBERG HATCHERY, AK US",60.7986,-148.0872,10.7,METERS,2002-01-01,2024-01-31,1.0
598,GHCND:USC00509793,"WHITESTONE FARMS, AK US",64.1539,-145.8894,303.3,METERS,1996-01-01,2024-03-13,1.0
599,GHCND:USC00509798,"WHITE MOUNTAIN, AK US",64.68333,-163.4,6.1,METERS,1922-01-01,2024-03-12,0.2214
602,GHCND:USC00509869,"WISEMAN, AK US",67.40822,-150.10958,360.0,METERS,1918-11-01,2024-03-13,1.0
603,GHCND:USC00509891,"NORTH POLE 1 N, AK US",64.76,-147.34,151.2,METERS,1996-12-01,2024-03-14,1.0
604,GHCND:USC00509919,"WRANGELL AIRPORT, AK US",56.4732,-132.3874,17.1,METERS,1917-11-01,2024-03-12,1.0
605,GHCND:USR0000AALC,"ALCAN HIGHWAY MI 1244 ALASKA, AK US",62.8167,-141.4667,548.6,METERS,1990-06-01,2023-12-02,0.9193
609,GHCND:USR0000ABCK,"BIRCH CREEK ALASKA, AK US",65.5847,-144.3636,259.1,METERS,1998-07-01,2024-02-06,0.8356
613,GHCND:USR0000ABIL,"BIG LAKE ALASKA, AK US",61.5183,-149.9078,30.5,METERS,2000-04-01,2024-02-06,0.7969
614,GHCND:USR0000ABNT,"BENTALIT ALASKA, AK US",61.9358,-150.9858,45.7,METERS,1999-07-01,2024-02-06,0.97
615,GHCND:USR0000ABOL,"BOLIO ALASKA, AK US",63.8667,-145.8333,746.8,METERS,2004-12-05,2024-02-06,0.665
618,GHCND:USR0000ABRO,"BROADVIEW ALASKA, AK US",60.4833,-149.7667,190.5,METERS,1989-09-01,2024-02-06,0.9042
620,GHCND:USR0000ACAM,"CAMPBELL CREEK ALASKA, AK US",61.1586,-149.7967,47.9,METERS,2005-12-31,2024-02-06,0.8607
621,GHCND:USR0000ACCR,"CARIBOU PEAK ALASKA, AK US",65.1892,-147.5003,480.1,METERS,1990-06-01,2024-02-06,0.8774
623,GHCND:USR0000ACHC,"CHICKEN CREEK ALASKA, AK US",62.1242,-141.8453,1597.2,METERS,2004-08-21,2024-02-06,0.9631
625,GHCND:USR0000ACHI,"CHISANA ALASKA, AK US",62.1333,-142.0833,1011.3,METERS,1988-07-01,2023-12-31,0.8356
626,GHCND:USR0000ACHL,"CHALKYITSIK ALASKA, AK US",66.5906,-144.3411,137.2,METERS,1997-06-01,2023-12-18,0.8274
628,GHCND:USR0000ACHS,"CHISTOCHINA ALASKA, AK US",62.5653,-144.6647,701.0,METERS,2001-06-01,2024-02-06,0.9483
629,GHCND:USR0000ACHT,"CHITNA ALASKA, AK US",61.5319,-144.4397,177.1,METERS,1998-10-01,2024-02-06,0.9714
630,GHCND:USR0000ACKN,"CHICKEN ALASKA, AK US",64.06,-141.9294,871.7,METERS,1998-09-01,2024-02-06,0.9195
631,GHCND:USR0000ACOA,"COAL CREEK ALASKA, AK US",65.3139,-143.1322,265.2,METERS,2004-11-05,2024-02-06,0.9625
632,GHCND:USR0000ACOT,"COTTONWOOD ALASKA, AK US",65.3458,-155.9361,399.3,METERS,1991-06-01,2024-02-06,0.7382
633,GHCND:USR0000ACOV,"COVILLE ALASKA, AK US",58.8025,-155.5628,457.2,METERS,2008-06-01,2024-02-06,0.9197
634,GHCND:USR0000ADEN,"DENALI VISITOR CENTER ALASKA, AK US",63.7322,-148.9055,548.6,METERS,2004-07-14,2024-02-06,0.6747
636,GHCND:USR0000ADON,"DONNELLY ALASKA, AK US",63.9833,-145.65,914.4,METERS,2004-12-05,2024-02-06,0.7147
638,GHCND:USR0000AEAG,"EAGLE ALASKA, AK US",64.7761,-141.1619,268.2,METERS,1992-06-01,2024-02-06,0.9371
641,GHCND:USR0000AFAI,"FAIRBANKS ALASKA, AK US",64.8367,-147.615,138.4,METERS,1988-03-01,2023-11-14,0.9317
642,GHCND:USR0000AFAR,"FAREWELL ALASKA, AK US",63.7233,-154.0767,236.2,METERS,1996-08-01,2024-02-06,0.9153
643,GHCND:USR0000AFLT,"FLAT ALASKA, AK US",62.8228,-156.6139,451.1,METERS,1996-08-01,2024-02-06,0.8546
644,GHCND:USR0000AFPK,"FOURPEAKED ALASKA, AK US",58.7058,-153.5181,327.4,METERS,2009-06-09,2024-02-06,0.8413
645,GHCND:USR0000AFYK,"FORT YUKON ALASKA, AK US",66.57,-145.2508,141.7,METERS,2005-12-31,2024-02-06,0.941
646,GHCND:USR0000AGAT,"GATES GLACIER ALASKA, AK US",61.6028,-143.0131,1237.5,METERS,2004-12-05,2024-02-06,0.8565
647,GHCND:USR0000AGEO,"GEORGE CREEK ALASKA, AK US",63.8375,-144.3503,464.8,METERS,1999-08-01,2024-02-06,0.9999
649,GHCND:USR0000AGOP,"GOODPASTURE ALASKA, AK US",64.2381,-145.2669,463.3,METERS,1996-07-01,2024-02-06,0.9071
650,GHCND:USR0000AGRA,"GRAPHITE LAKE ALASKA, AK US",67.0333,-143.2833,259.1,METERS,1991-06-01,2023-09-19,0.7192
651,GHCND:USR0000AGRN,"GRANITE ALASKA, AK US",60.7275,-149.287,156.1,METERS,1997-05-01,2024-02-06,0.925
653,GHCND:USR0000AHAI,"HAIDA ALASKA, AK US",55.3503,-132.6983,457.2,METERS,1989-09-01,2024-02-06,0.5975
655,GHCND:USR0000AHAY,"HAYCOCK ALASKA, AK US",65.2017,-161.155,53.9,METERS,1988-05-01,2024-02-06,0.788
656,GHCND:USR0000AHEL,"HELMUT MOUNTAIN ALASKA, AK US",67.7414,-144.1225,853.4,METERS,1988-09-01,2024-02-06,0.7584
657,GHCND:USR0000AHLM,"HELM ALASKA, AK US",55.5297,-131.3661,426.7,METERS,1989-09-01,2024-02-06,0.8883
659,GHCND:USR0000AHOG,"HOGATZA RIVER ALASKA, AK US",66.2167,-155.6667,208.8,METERS,1988-05-01,2024-02-06,0.7701
660,GHCND:USR0000AHOM,"HOMER ALASKA, AK US",59.7458,-151.2083,217.9,METERS,1998-05-01,2024-02-06,0.9534
661,GHCND:USR0000AHON,"HOONAH ALASKA, AK US",57.8,-135.1333,137.2,METERS,1989-09-01,2024-02-06,0.7806
666,GHCND:USR0000AINN,"INNOKO FLATS ALASKA, AK US",63.39,-158.8167,283.5,METERS,1988-03-01,2024-02-06,0.8842
667,GHCND:USR0000AJAR,"JARVIS CREEK ALASKA, AK US",63.9486,-145.6189,434.6,METERS,2005-12-31,2024-01-06,0.6436
668,GHCND:USR0000AJAT,"JATAHMUND LAKE ALASKA, AK US",62.6,-142.0833,701.0,METERS,1990-07-01,2024-01-31,0.9282
670,GHCND:USR0000AKAI,"KAIYUH ALASKA, AK US",64.4256,-158.1058,33.5,METERS,1997-08-01,2024-02-06,0.9732
673,GHCND:USR0000AKAN,"KANUTI NWR ALASKA, AK US",66.0933,-152.17,251.5,METERS,1990-08-01,2024-02-06,0.9253
674,GHCND:USR0000AKAV,"KAVET CREEK ALASKA, AK US",67.1386,-159.0436,71.6,METERS,1992-06-01,2024-02-06,0.9021
675,GHCND:USR0000AKEL,"KELLY ALASKA, AK US",67.9333,-162.3,125.6,METERS,1990-04-01,2024-02-06,0.891
676,GHCND:USR0000AKEN,"KENAI NWR ALASKA, AK US",60.5917,-150.3167,121.9,METERS,1988-06-01,2024-02-06,0.8862
677,GHCND:USR0000AKIA,"KIANA ALASKA, AK US",66.9767,-160.4375,45.7,METERS,1988-04-01,2024-02-06,0.8214
678,GHCND:USR0000AKIL,"KILBUCK ALASKA, AK US",60.32,-160.2,582.2,METERS,1991-07-01,2024-02-06,0.9999
679,GHCND:USR0000AKLA,"KLAWASI ALASKA, AK US",62.1472,-144.9281,944.9,METERS,1991-06-01,2024-02-06,0.8858
680,GHCND:USR0000AKLK,"KENAI LAKE ALASKA, AK US",60.3667,-149.4,144.8,METERS,1989-09-01,2024-02-06,0.8744
682,GHCND:USR0000AKOY,"KOYUKUK NWR ALASKA, AK US",66.0083,-157.57,30.5,METERS,1990-07-01,2024-02-05,0.8327
684,GHCND:USR0000ALIV,"LIVENGOOD ALASKA, AK US",65.4236,-148.7217,137.2,METERS,1998-08-01,2024-02-06,0.9481
685,GHCND:USR0000ALMI,"LAKE MINCHUMINA ALASKA, AK US",63.8933,-152.3106,225.6,METERS,1992-06-01,2024-02-06,0.972
686,GHCND:USR0000ALOS,"LOST CREEK ALASKA, AK US",66.0425,-147.9714,213.4,METERS,2003-07-01,2023-09-15,0.8756
688,GHCND:USR0000AMAY,"MAY CREEK ALASKA, AK US",61.3208,-142.5844,487.7,METERS,1990-05-01,2024-02-06,0.926
689,GHCND:USR0000AMCK,"MCKINLEY RIVER ALASKA, AK US",63.6492,-151.6397,256.0,METERS,1990-06-01,2024-02-06,0.7419
692,GHCND:USR0000ANIN,"NINILCHIK ALASKA, AK US",60.0433,-151.6655,39.6,METERS,1992-06-01,2024-02-06,0.8133
694,GHCND:USR0000ANOR,"NORUTAK LAKE ALASKA, AK US",66.8333,-154.3333,243.8,METERS,1990-05-01,2024-02-06,0.8102
696,GHCND:USR0000APAL,"PORT ALSWORTH ALASKA, AK US",60.1958,-154.32,79.2,METERS,1992-06-01,2024-02-06,0.9616
698,GHCND:USR0000APAX,"PAXSON ALASKA, AK US",62.9453,-145.5014,813.8,METERS,1996-08-01,2024-02-06,0.928
699,GHCND:USR0000APOO,"POORMAN ALASKA, AK US",64.105,-155.5583,285.0,METERS,1988-06-01,2024-02-06,0.8683
700,GHCND:USR0000APRE,"PREACHER CREEK ALASKA, AK US",65.9233,-145.03,316.4,METERS,1993-08-01,2024-02-06,0.8493
701,GHCND:USR0000APTM,"PT. MAC ALASKA, AK US",61.4225,-150.0914,61.0,METERS,2005-12-31,2024-02-06,0.8563
702,GHCND:USR0000AQTZ,"QUARTZ CREEK ALASKA, AK US",65.4,-164.65,130.1,METERS,1988-05-01,2024-02-06,0.8418
703,GHCND:USR0000ARAB,"RABBIT CREEK ALASKA, AK US",61.0844,-149.7283,451.1,METERS,1992-06-01,2024-02-06,0.8846
705,GHCND:USR0000AREN,"RENEE ALASKA, AK US",62.71,-146.6181,792.5,METERS,1999-06-01,2024-02-06,0.7276
707,GHCND:USR0000AROU,"ROUND LAKE ALASKA, AK US",64.6847,-153.94,173.7,METERS,1992-08-01,2024-02-06,0.9366
710,GHCND:USR0000ASAL,"SALMON TROUT ALASKA, AK US",66.8125,-141.62,673.6,METERS,1988-07-01,2024-02-06,0.8588
711,GHCND:USR0000ASAR,"SMALL ARMS RANGE ALASKA, AK US",64.8,-147.6167,149.4,METERS,2004-12-05,2024-02-06,0.8503
712,GHCND:USR0000ASEL,"SELAWIK ALASKA, AK US",66.6033,-159.1125,32.0,METERS,1991-06-01,2024-02-06,0.9328
716,GHCND:USR0000ASKI,"SKILAK GUARD STATION ALASKA, AK US",60.4839,-150.4606,179.8,METERS,2000-05-01,2024-01-14,0.9685
718,GHCND:USR0000ASLC,"SALCHA ALASKA, AK US",64.59,-146.14,304.8,METERS,1996-07-01,2024-02-06,0.8438
720,GHCND:USR0000ASNI,"SNIPE LAKE ALASKA, AK US",60.6103,-154.32,701.0,METERS,2008-06-07,2024-02-06,0.9074
721,GHCND:USR0000ASTM,"STAMPEDE ALASKA, AK US",63.7478,-150.328,579.1,METERS,2004-09-01,2023-06-22,0.8527
722,GHCND:USR0000ASTO,"STONEY ALASKA, AK US",61.0008,-153.8958,381.0,METERS,1992-06-01,2024-02-06,0.7895
724,GHCND:USR0000ASTU,"STUART CREEK ALASKA, AK US",64.7189,-146.5044,470.3,METERS,2004-12-30,2024-02-06,0.9149
725,GHCND:USR0000ASWA,"SWANSON RIVER ALASKA, AK US",60.7278,-150.8722,85.3,METERS,1990-05-01,2024-02-06,0.926
729,GHCND:USR0000ATAN,"TANA KNOB ALASKA, AK US",60.9081,-142.6978,1051.6,METERS,2004-12-05,2024-02-06,0.6696
730,GHCND:USR0000ATEB,"TEBAY ALASKA, AK US",61.1881,-144.4003,609.6,METERS,2004-12-05,2023-09-26,0.7873
731,GHCND:USR0000ATEL,"TELIDA ALASKA, AK US",63.44,-153.3567,198.1,METERS,1991-05-01,2024-02-06,0.8995
732,GHCND:USR0000ATHO,"THORNE BAY ALASKA, AK US",55.75,-132.9833,548.6,METERS,1989-09-01,2024-02-06,0.558
735,GHCND:USR0000ATOK,"TOK RIVER VALLEY ALASKA, AK US",62.9572,-143.3467,701.0,METERS,1999-08-01,2024-02-06,0.9599
736,GHCND:USR0000ATTA,"GOLD KING ALASKA, AK US",64.4044,-148.4622,169.5,METERS,2003-07-01,2024-02-06,0.9018
737,GHCND:USR0000AUCR,"UPPER CHARLEY RIVER ALASKA, AK US",64.5167,-143.2022,1113.7,METERS,2004-12-05,2024-02-06,0.8235
738,GHCND:USR0000AUMI,"UMIAT AIRFIELD ALASKA, AK US",69.37,-152.1361,88.1,METERS,2005-12-31,2023-11-01,0.9219
739,GHCND:USR0000AVUN,"VUNZIK LAKE ALASKA, AK US",66.7981,-146.7158,160.0,METERS,1994-08-01,2024-02-06,0.6538
740,GHCND:USR0000AWEI,"WEIN LAKE ALASKA, AK US",64.315,-151.0833,320.0,METERS,1988-05-01,2024-02-06,0.8419
741,GHCND:USR0000AWIG,"WIGAND ALASKA, AK US",63.8122,-150.05,524.3,METERS,2004-09-01,2024-02-06,0.6173
742,GHCND:USR0000AWLL,"WILLOW ALASKA, AK US",61.765,-150.0503,64.0,METERS,2005-12-31,2023-12-11,0.6789
743,GHCND:USR0000AWON,"WONDER LAKE ALASKA, AK US",63.4903,-150.8714,646.2,METERS,1995-07-01,2024-02-06,0.9195
745,GHCND:USR0000AZAR,"ZAREMBO ALASKA, AK US",56.3,-132.8486,335.3,METERS,1989-09-01,2024-02-06,0.7242
746,GHCND:USS0033J01S,"LONG LAKE, AK US",58.19,-133.83,259.1,METERS,1966-09-30,2024-03-08,0.9848
747,GHCND:USS0035K02S,"MOORE CREEK BRIDGE, AK US",59.59,-135.21,685.8,METERS,1989-10-01,2024-03-08,0.9468
749,GHCND:USS0042M01S,"MAY CREEK, AK US",61.35,-142.71,490.7,METERS,2007-07-01,2024-03-08,0.9997
750,GHCND:USS0042N01S,"CHISANA, AK US",62.07,-142.05,1011.9,METERS,2008-07-01,2024-03-08,1.0
751,GHCND:USS0044Q07S,"UPPER CHENA, AK US",65.1,-144.93,868.7,METERS,1984-05-01,2024-03-08,0.8362
752,GHCND:USS0045L01S,"MOUNT EYAK, AK US",60.55,-145.75,428.2,METERS,2005-09-01,2024-03-08,1.0
753,GHCND:USS0045M07S,"UPPER TSAINA RIVER, AK US",61.19,-145.65,533.4,METERS,2003-09-30,2024-03-08,0.9999
755,GHCND:USS0045O04S,"GRANITE CRK, AK US",63.94,-145.4,378.0,METERS,1987-10-01,2024-03-08,1.0
757,GHCND:USS0045P03S,"TEUCHET CREEK, AK US",64.95,-145.52,499.9,METERS,1981-09-30,2024-03-08,0.9946
758,GHCND:USS0045Q02S,"MONUMENT CREEK, AK US",65.08,-145.87,563.9,METERS,1980-09-30,2023-12-28,0.9959
759,GHCND:USS0045Q05S,"EAGLE SUMMIT, AK US",65.49,-145.41,1112.5,METERS,1998-10-01,2024-03-08,1.0
760,GHCND:USS0045R01S,"FORT YUKON, AK US",66.57,-145.25,131.1,METERS,1993-10-01,2024-03-08,0.9994
761,GHCND:USS0046M04S,"SUGARLOAF MOUNTAIN, AK US",61.08,-146.3,167.6,METERS,2007-07-01,2024-03-08,0.9901
762,GHCND:USS0046P01S,"MUNSON RIDGE, AK US",64.85,-146.21,944.9,METERS,1980-09-30,2024-03-08,0.997
763,GHCND:USS0046Q01S,"MOUNT RYAN, AK US",65.25,-146.15,853.4,METERS,1981-09-30,2024-03-08,0.9876
764,GHCND:USS0046Q02S,"LITTLE CHENA RIDGE, AK US",65.12,-146.73,609.6,METERS,1981-09-30,2024-03-08,0.9876
765,GHCND:USS0046Q07S,"UPPER NOME CREEK, AK US",65.37,-146.59,768.1,METERS,2006-08-01,2024-03-08,0.9999
766,GHCND:USS0047O01S,"MONAHAN FLAT, AK US",63.31,-147.65,826.0,METERS,1983-10-01,2024-03-08,0.8641
768,GHCND:USS0048L06S,"ESTHER ISLAND, AK US",60.8,-148.09,15.2,METERS,2005-06-01,2024-03-08,1.0
769,GHCND:USS0048M04S,"MORAINE, AK US",61.38,-149.0,640.1,METERS,2002-02-28,2024-03-08,0.9998
770,GHCND:USS0048U01S,"SAGWON, AK US",69.42,-148.69,304.8,METERS,1983-03-01,2024-03-08,0.9071
771,GHCND:USS0048V01S,"PRUDHOE BAY, AK US",70.27,-148.57,9.1,METERS,2003-09-30,2024-03-08,0.9999
772,GHCND:USS0049L01S,"MOUNT ALYESKA, AK US",60.96,-149.09,469.4,METERS,1972-09-30,2024-03-08,0.9471
773,GHCND:USS0049L09S,"GRANDVIEW, AK US",60.61,-149.06,335.3,METERS,1983-10-01,2024-03-08,1.0
774,GHCND:USS0049L10S,"COOPER LAKE, AK US",60.39,-149.69,365.8,METERS,1981-09-30,2024-03-08,1.0
775,GHCND:USS0049L13S,"TURNAGAIN PASS, AK US",60.78,-149.18,573.0,METERS,1982-09-30,2024-03-08,0.9975
776,GHCND:USS0049L14S,"GROUSE CREEK DIVIDE, AK US",60.26,-149.34,213.4,METERS,1988-10-01,2024-03-08,0.9435
778,GHCND:USS0049L19S,"SUMMIT CREEK, AK US",60.62,-149.53,426.7,METERS,1989-09-30,2024-03-08,1.0
779,GHCND:USS0049M08S,"INDIAN PASS, AK US",61.07,-149.48,716.3,METERS,1979-09-30,2024-03-08,1.0
780,GHCND:USS0049M22S,"ANCHORAGE HILLSIDE, AK US",61.11,-149.67,634.0,METERS,2005-06-01,2024-03-08,1.0
781,GHCND:USS0049M26S,"INDEPENDENCE MINE, AK US",61.79,-149.28,1082.0,METERS,1997-11-01,2024-01-09,0.8566
782,GHCND:USS0049T01S,"IMNAVIAT CREEK, AK US",68.62,-149.3,929.6,METERS,1981-03-01,2024-03-08,0.9192
783,GHCND:USS0049T03S,"ATIGUN PASS, AK US",68.13,-149.48,1463.0,METERS,1982-10-01,2024-03-08,0.9975
784,GHCND:USS0050K05S,"MIDDLE FORK BRADLEY, AK US",59.78,-150.76,701.0,METERS,1990-10-01,2024-03-08,0.9279
785,GHCND:USS0050K06S,"NUKA GLACIER, AK US",59.7,-150.71,381.0,METERS,1990-10-01,2024-03-08,0.9282
787,GHCND:USS0050L02S,"KENAI MOOSE PENS, AK US",60.73,-150.48,91.4,METERS,1983-10-01,2024-03-08,1.0
791,GHCND:USS0050N05S,"TOKOSITNA VALLEY, AK US",62.63,-150.78,259.1,METERS,2006-06-30,2024-03-08,0.9998
792,GHCND:USS0050N07S,"SUSITNA VALLEY HIGH, AK US",62.13,-150.04,114.3,METERS,1987-09-30,2024-03-08,1.0
793,GHCND:USS0050O01S,"KANTISHNA, AK US",63.54,-150.99,472.4,METERS,2005-07-01,2024-03-08,0.9921
794,GHCND:USS0050R04S,"GOBBLERS KNOB, AK US",66.75,-150.67,618.7,METERS,1997-07-01,2024-03-08,0.9955
795,GHCND:USS0050S01S,"COLDFOOT, AK US",67.25,-150.18,317.0,METERS,1995-02-28,2024-03-08,0.9999
796,GHCND:USS0051K05S,"ANCHOR RIVER DIVIDE, AK US",59.86,-151.32,503.8,METERS,1980-09-30,2024-03-08,0.7497
797,GHCND:USS0051K14S,"MCNEIL CANYON, AK US",59.74,-151.25,402.3,METERS,1986-09-30,2024-03-08,0.9999
798,GHCND:USS0051K15S,"PORT GRAHAM, AK US",59.35,-151.85,91.4,METERS,2000-09-30,2024-03-08,0.9839
799,GHCND:USS0051R01S,"BETTLES FIELD, AK US",66.92,-151.53,195.1,METERS,1980-09-30,2024-03-08,1.0
802,GHCND:USS0062S01S,"KELLY STATION, AK US",67.93,-162.28,94.5,METERS,1991-10-01,2024-03-08,0.5082
803,GHCND:USS0063P01S,"ROCKY POINT, AK US",64.53,-163.42,76.2,METERS,1999-09-30,2024-03-08,0.9999
804,GHCND:USS0063P02S,"PARGON CREEK, AK US",64.99,-163.1,30.5,METERS,2000-09-30,2024-03-08,0.9678
813,GHCND:USW00025309,"JUNEAU AIRPORT, AK US",58.354,-134.55606,5.9,METERS,1936-01-01,2024-03-14,1.0
814,GHCND:USW00025322,"GUSTAVUS, AK US",58.4111,-135.7089,12.2,METERS,1923-04-01,2024-03-13,1.0
815,GHCND:USW00025323,"HAINES AIRPORT, AK US",59.24287,-135.51139,6.4,METERS,1911-08-01,2024-03-12,1.0
816,GHCND:USW00025325,"KETCHIKAN AIRPORT, AK US",55.3586,-131.72196,25.7,METERS,1910-09-01,2024-03-12,1.0
817,GHCND:USW00025329,"PETERSBURG 1, AK US",56.8055,-132.9372,32.6,METERS,1924-05-01,2024-03-13,1.0
818,GHCND:USW00025331,"PALMER AIRPORT, AK US",61.59505,-149.09175,70.9,METERS,1997-10-01,2024-03-12,1.0
819,GHCND:USW00025335,"SKAGWAY AIRPORT, AK US",59.45383,-135.32769,7.4,METERS,1996-09-01,2024-03-12,1.0
820,GHCND:USW00025339,"YAKUTAT AIRPORT, AK US",59.51211,-139.67103,12.6,METERS,1917-04-01,2024-03-14,1.0
821,GHCND:USW00025367,"KLAWOCK AIRPORT, AK US",55.58191,-133.07468,20.8,METERS,1997-07-01,2024-03-12,1.0
822,GHCND:USW00025379,"SITKA 1 NE, AK US",57.0574,-135.3266,23.8,METERS,2005-08-01,2024-03-13,1.0
826,GHCND:USW00025501,"KODIAK AIRPORT, AK US",57.75071,-152.4881,5.0,METERS,1945-01-01,2024-03-14,1.0
827,GHCND:USW00025503,"KING SALMON AIRPORT, AK US",58.68294,-156.65634,20.0,METERS,1942-01-01,2024-03-14,1.0
828,GHCND:USW00025506,"ILIAMNA AIRPORT, AK US",59.74922,-154.90902,46.4,METERS,1920-02-01,2024-03-12,1.0
829,GHCND:USW00025507,"HOMER AIRPORT, AK US",59.64196,-151.49098,19.1,METERS,1932-09-01,2024-03-14,1.0
830,GHCND:USW00025516,"SELDOVIA AIRPORT, AK US",59.44597,-151.70653,8.7,METERS,1997-06-01,2024-03-12,1.0
832,GHCND:USW00025624,"COLD BAY AIRPORT, AK US",55.22068,-162.7323,22.0,METERS,1942-03-25,2024-03-14,1.0
833,GHCND:USW00025628,"ST GEORGE ISLAND AIRPORT, AK US",56.57484,-169.66265,32.0,METERS,1996-10-01,2024-03-12,1.0
834,GHCND:USW00025630,"SAND POINT 1 ENE, AK US",55.3473,-160.466,73.2,METERS,2009-08-01,2024-03-13,1.0
835,GHCND:USW00025704,"ADAK AIRPORT, AK US",51.88333,-176.65,5.2,METERS,1942-10-01,2024-03-12,1.0
836,GHCND:USW00025711,"ST. PAUL 4 NE, AK US",57.1575,-170.2119,6.1,METERS,2005-08-01,2024-03-13,1.0
837,GHCND:USW00025713,"SAINT PAUL ISLAND AIRPORT, AK US",57.15505,-170.22272,8.0,METERS,1915-08-08,2024-03-14,1.0
839,GHCND:USW00026409,"ANCHORAGE MERRILL FIELD, AK US",61.2163,-149.85724,38.4,METERS,1916-02-01,2024-03-12,1.0
840,GHCND:USW00026410,"CORDOVA AIRPORT, AK US",60.48604,-145.4445,14.7,METERS,1909-05-01,2024-03-12,1.0
841,GHCND:USW00026411,"FAIRBANKS INTERNATIONAL AIRPORT, AK US",64.80309,-147.87606,131.1,METERS,1929-12-01,2024-03-14,1.0
842,GHCND:USW00026412,"NORTHWAY AIRPORT, AK US",62.96148,-141.93834,523.2,METERS,1942-09-01,2024-03-12,1.0
843,GHCND:USW00026415,"BIG DELTA AIRPORT, AK US",63.99312,-145.72134,388.1,METERS,1917-06-01,2024-03-14,1.0
844,GHCND:USW00026422,"EAGLE AIRPORT, AK US",64.77611,-141.16351,277.3,METERS,1998-02-01,2024-03-12,1.0
845,GHCND:USW00026425,"GULKANA AIRPORT, AK US",62.15914,-145.45885,481.1,METERS,1907-03-01,2024-03-14,1.0
846,GHCND:USW00026435,"NENANA MUNICIPAL AIRPORT, AK US",64.54725,-149.08713,110.1,METERS,1916-12-01,2024-03-12,1.0
847,GHCND:USW00026438,"SEWARD AIRPORT, AK US",60.12927,-149.41849,4.1,METERS,1908-02-01,2024-03-12,1.0
849,GHCND:USW00026451,"ANCHORAGE TED STEVENS INTERNATIONAL AIRPORT, AK US",61.16916,-150.02771,38.0,METERS,1952-04-01,2024-03-14,1.0
850,GHCND:USW00026491,"ANCHORAGE LAKE HOOD SEA PLANE BASE, AK US",61.1786,-149.96509,25.1,METERS,1998-02-01,2024-03-12,1.0
851,GHCND:USW00026492,"PORTAGE GLACIER VISITOR CENTER, AK US",60.78351,-148.84839,32.5,METERS,1998-10-01,2024-03-12,1.0
852,GHCND:USW00026494,"FAIRBANKS 11 NE, AK US",64.9735,-147.51,347.5,METERS,2002-08-01,2024-03-13,1.0
853,GHCND:USW00026501,"GALENA AIRPORT, AK US",64.73667,-156.93444,46.6,METERS,1953-01-01,2024-03-12,0.3609
854,GHCND:USW00026502,"KALTAG AIRPORT, AK US",64.3208,-158.7326,52.6,METERS,1998-07-01,2024-03-12,1.0
855,GHCND:USW00026510,"MCGRATH AIRPORT, AK US",62.9574,-155.61009,101.0,METERS,1939-04-01,2024-11-14,1.0
857,GHCND:USW00026523,"KENAI AIRPORT, AK US",60.57909,-151.24152,30.2,METERS,1899-01-01,2024-03-12,1.0
858,GHCND:USW00026528,"TALKEETNA AIRPORT, AK US",62.31978,-150.09744,106.8,METERS,1918-06-01,2024-03-14,1.0
859,GHCND:USW00026529,"TANANA AIRPORT, AK US",65.173,-152.10676,68.7,METERS,1901-08-01,2024-03-12,1.0
860,GHCND:USW00026533,"BETTLES AIRPORT, AK US",66.91764,-151.51892,196.5,METERS,1945-01-01,2024-03-14,1.0
861,GHCND:USW00026562,"PORT ALSWORTH 1 SW, AK US",60.1951,-154.3196,97.8,METERS,2009-09-01,2024-03-13,1.0
865,GHCND:USW00026615,"BETHEL AIRPORT, AK US",60.78497,-161.82931,32.6,METERS,1923-08-01,2024-03-14,1.0
866,GHCND:USW00026616,"KOTZEBUE AIRPORT, AK US",66.88569,-162.6068,3.4,METERS,1897-01-01,2024-03-14,1.0
867,GHCND:USW00026617,"NOME AIRPORT, AK US",64.51112,-165.44002,5.4,METERS,1900-08-01,2024-03-14,1.0
870,GHCND:USW00026642,"KIVALINA AIRPORT, AK US",67.7306,-164.54788,5.7,METERS,1998-07-01,2024-03-12,1.0
871,GHCND:USW00026643,"DEERING AIRPORT, AK US",66.06957,-162.76142,5.4,METERS,1998-07-01,2024-03-12,0.9999
876,GHCND:USW00027401,"BARTER ISLAND WEATHER SERVICE OFFICE AIRPORT, AK US",70.13389,-143.57694,14.9,METERS,1947-09-01,2024-03-14,0.6938
877,GHCND:USW00027406,"DEADHORSE, AK US",70.19146,-148.48005,17.7,METERS,1999-01-01,2024-03-12,1.0
878,GHCND:USW00027502,"BARROW AIRPORT, AK US",71.28703,-156.73938,8.1,METERS,1901-09-01,2024-03-14,1.0
879,GHCND:USW00027503,"WAINWRIGHT AIRPORT, AK US",70.63678,-160.01314,12.5,METERS,1935-09-01,2024-03-11,1.0
880,GHCND:USW00027515,"NUIQSUT AIRPORT, AK US",70.21262,-150.99441,11.3,METERS,1998-07-01,2024-03-12,1.0
881,GHCND:USW00027516,"UTQIA VIK FORMERLY BARROW 4 ENE, AK US",71.3213,-156.611,4.6,METERS,2002-08-01,2024-03-13,0.9999
1053,GHCND:USC00020080,"AJO, AZ US",32.3698,-112.8599,533.7,METERS,1914-01-01,2024-03-12,1.0
1054,GHCND:USC00020100,"ALAMO DAM, AZ US",34.22811,-113.57777,393.2,METERS,1975-01-01,2024-01-31,1.0
1055,GHCND:USC00020159,"ALPINE, AZ US",33.8492,-109.1469,2453.6,METERS,1904-01-01,2024-03-12,1.0
1057,GHCND:USC00020287,"ANVIL RANCH, AZ US",31.9793,-111.3837,840.9,METERS,1942-12-01,2024-03-13,1.0
1058,GHCND:USC00020288,"APACHE JUNCTION 5 NE, AZ US",33.4625,-111.4813,630.9,METERS,1987-01-01,2024-03-13,1.0
1059,GHCND:USC00020380,"ARIVACA, AZ US",31.57669,-111.31709,1112.2,METERS,1899-10-01,2024-03-10,1.0
1061,GHCND:USC00020586,"BAGDAD, AZ US",34.5975,-113.1745,1199.4,METERS,1925-01-01,2024-03-13,1.0
1062,GHCND:USC00020632,"BARTLETT DAM, AZ US",33.8097,-111.6497,502.9,METERS,1939-01-01,2024-03-13,1.0
1064,GHCND:USC00020678,"BELLEMONT WEATHER FORECAST OFFICE, AZ US",35.2302,-111.8221,2179.9,METERS,1999-11-01,2024-03-13,1.0
1065,GHCND:USC00020683,"BENSON 6 SE, AZ US",31.8805,-110.2403,1124.7,METERS,1990-05-01,2024-03-08,1.0
1066,GHCND:USC00020750,"BETATAKIN, AZ US",36.6778,-110.5411,2220.8,METERS,1939-03-01,2024-02-29,1.0
1068,GHCND:USC00020808,"BLACK RIVER PUMPS, AZ US",33.4783,-109.7516,1848.6,METERS,1948-07-01,2024-01-31,1.0
1069,GHCND:USC00020871,"BLUE RIDGE RANGER STATION, AZ US",34.6108,-111.1922,2097.0,METERS,1967-07-01,2024-03-13,1.0
1073,GHCND:USC00021001,"BRIGHT ANGEL RANGER STATION, AZ US",36.2147,-112.0619,2438.4,METERS,1925-05-01,2024-03-11,1.0
1075,GHCND:USC00021050,"BULLHEAD CITY, AZ US",35.14107,-114.56863,161.8,METERS,1977-11-01,2024-03-11,1.0
1077,GHCND:USC00021248,"CANYON DE CHELLY, AZ US",36.1533,-109.5394,1709.9,METERS,1970-12-01,2024-02-29,1.0
1078,GHCND:USC00021282,"CAREFREE, AZ US",33.8164,-111.90167,771.1,METERS,1962-01-01,2024-03-13,1.0
1079,GHCND:USC00021306,"CASA GRANDE, AZ US",32.88751,-111.71475,426.7,METERS,1898-06-01,2024-03-13,1.0
1080,GHCND:USC00021314,"CASA GRANDE NATIONAL MONUMENT, AZ US",32.9947,-111.5367,432.5,METERS,1906-03-01,2024-02-18,1.0
1081,GHCND:USC00021330,"CASCABEL, AZ US",32.26174,-110.34803,973.5,METERS,1969-01-01,2024-01-31,1.0
1083,GHCND:USC00021357,"CATALINA STATE PARK, AZ US",32.4177,-110.9302,825.1,METERS,2007-04-01,2024-03-13,1.0
1086,GHCND:USC00021664,"CHIRICAHUA NATIONAL MONUMENT, AZ US",32.0061,-109.3572,1633.7,METERS,1909-01-01,2024-03-12,1.0
1089,GHCND:USC00022109,"CORDES, AZ US",34.305,-112.165,1149.4,METERS,1925-12-01,2024-02-29,1.0
1090,GHCND:USC00022140,"CORONADO NATIONAL MEMORIAL, AZ US",31.3455,-110.2541,1597.8,METERS,1960-01-01,2024-03-12,1.0
1096,GHCND:USC00022754,"DUNCAN, AZ US",32.748,-109.1213,1115.6,METERS,1901-05-01,2024-02-03,1.0
1097,GHCND:USC00022782,"EAST MESA, AZ US",33.4191,-111.6444,462.7,METERS,2002-01-01,2024-03-13,1.0
1099,GHCND:USC00023009,"FLAGSTAFF 4 SW, AZ US",35.1611,-111.7311,2171.7,METERS,1984-05-01,2024-02-29,1.0
1102,GHCND:USC00023150,"FORT THOMAS 2 SW, AZ US",33.0094,-109.9855,864.1,METERS,1966-01-01,2023-05-08,1.0
1103,GHCND:USC00023160,"FORT VALLEY, AZ US",35.27194,-111.73,2239.1,METERS,1909-01-01,2024-01-31,1.0
1104,GHCND:USC00023190,"FOUNTAIN HILLS, AZ US",33.60106,-111.71285,481.6,METERS,1979-10-01,2024-03-13,1.0
1107,GHCND:USC00023393,"GILA BEND 2 SE, AZ US",32.93803,-112.68109,242.0,METERS,1892-12-01,2024-01-31,1.0
1108,GHCND:USC00023448,"GISELA, AZ US",34.1111,-111.2758,883.9,METERS,1895-01-01,2024-01-31,1.0
1109,GHCND:USC00023501,"GLOBE NUMBER 3, AZ US",33.39025,-110.78933,1115.6,METERS,2009-01-01,2024-03-13,0.9997
1114,GHCND:USC00023668,"GREEN VALLEY, AZ US",31.893,-110.9977,883.9,METERS,1988-01-01,2024-03-11,1.0
1116,GHCND:USC00023828,"HAPPY JACK RANGER STATION, AZ US",34.74245,-111.4094,2279.9,METERS,1969-01-01,2024-02-29,1.0
1117,GHCND:USC00023961,"HEBER BLACK MESA RANGER STATION, AZ US",34.3925,-110.558,2008.6,METERS,1950-08-01,2024-02-29,1.0
1119,GHCND:USC00024453,"JEROME, AZ US",34.7538,-112.11152,1508.8,METERS,1897-01-01,2024-03-11,1.0
1120,GHCND:USC00024534,"KARTCHNER CAVERNS, AZ US",31.8352,-110.3552,1429.5,METERS,2009-11-01,2024-03-14,1.0
1122,GHCND:USC00024675,"KITT PEAK, AZ US",31.96018,-111.59787,2069.6,METERS,1960-01-01,2023-10-31,1.0
1124,GHCND:USC00024761,"LAKE HAVASU CITY, AZ US",34.5031,-114.3604,136.9,METERS,1991-01-01,2024-03-13,1.0
1130,GHCND:USC00025412,"MCNARY 2 N, AZ US",34.11336,-109.86002,2237.2,METERS,1920-07-01,2024-02-29,1.0
1131,GHCND:USC00025418,"MC NEAL, AZ US",31.6016,-109.6686,1271.0,METERS,1960-01-01,2024-03-13,1.0
1135,GHCND:USC00025494,"METEOR CRATER, AZ US",35.0364,-111.0231,1687.1,METERS,1962-01-01,2024-02-29,0.2694
1137,GHCND:USC00025635,"MONTEZUMA CASTLE NATIONAL MONUMENT, AZ US",34.6106,-111.8382,969.3,METERS,1938-10-01,2024-01-31,1.0
1139,GHCND:USC00025700,"MORMON FLAT, AZ US",33.55364,-111.44536,519.7,METERS,1923-08-01,2024-03-11,1.0
1140,GHCND:USC00025732,"MOUNT LEMMON FIRE DEPARTMENT, AZ US",32.4487,-110.75454,2403.7,METERS,1958-09-01,2024-03-13,0.1999
1144,GHCND:USC00025825,"NATURAL BRIDGE, AZ US",34.322,-111.4532,1404.5,METERS,1893-01-01,2024-03-13,1.0
1145,GHCND:USC00025924,"NOGALES 6 N, AZ US",31.4554,-110.968,1054.9,METERS,1952-10-01,2024-03-12,1.0
1148,GHCND:USC00026132,"ORGAN PIPE CACTUS NM, AZ US",31.9555,-112.8002,511.5,METERS,1944-01-01,2024-02-12,1.0
1150,GHCND:USC00026190,"PAINTED DESERT NATIONAL PARK, AZ US",35.06754,-109.77994,1755.6,METERS,1973-01-01,2024-03-10,1.0
1151,GHCND:USC00026194,"PAINTED ROCK DAM, AZ US",33.0772,-113.0316,173.1,METERS,1960-12-01,2023-11-30,1.0
1152,GHCND:USC00026242,"PARADISE, AZ US",31.9352,-109.2187,1664.2,METERS,1906-01-01,2024-03-13,1.0
1153,GHCND:USC00026250,"PARKER, AZ US",34.1547,-114.2908,128.0,METERS,1893-10-01,2024-01-31,1.0
1154,GHCND:USC00026282,"PATAGONIA PATON CENTER, AZ US",31.53923,-110.76028,1232.6,METERS,1978-01-01,2023-11-04,1.0
1156,GHCND:USC00026353,"PEARCE SUNSITES, AZ US",31.93723,-109.8395,1322.5,METERS,1913-09-01,2024-03-11,1.0
1157,GHCND:USC00026468,"PETRIFIED FOREST NATIONAL PARK, AZ US",34.7994,-109.885,1659.9,METERS,1931-01-01,2024-02-29,1.0
1158,GHCND:USC00026471,"PHANTOM RANCH, AZ US",36.1066,-112.0947,771.1,METERS,1966-08-01,2024-03-02,1.0
1160,GHCND:USC00026513,"PICACHO 8 SE, AZ US",32.6463,-111.4017,603.8,METERS,1987-12-01,2024-03-13,1.0
1162,GHCND:USC00026603,"PINNACLE PEAK, AZ US",33.7275,-111.8605,781.8,METERS,2002-01-01,2024-03-13,1.0
1163,GHCND:USC00026616,"PIPE SPRING NATIONAL MONUMENT, AZ US",36.8626,-112.7374,1499.6,METERS,1963-01-01,2024-03-11,1.0
1164,GHCND:USC00026653,"PLEASANT VALLEY, AZ US",34.1003,-110.9659,1579.8,METERS,1964-09-01,2024-01-23,1.0
1166,GHCND:USC00026796,"PRESCOTT, AZ US",34.5706,-112.4322,1586.5,METERS,1898-01-01,2024-03-13,1.0
1169,GHCND:USC00027187,"ROBSON RANCH, AZ US",32.81135,-111.63135,455.7,METERS,2009-01-01,2024-03-13,1.0
1170,GHCND:USC00027281,"ROOSEVELT 1 S, AZ US",33.649,-111.1088,794.0,METERS,1905-07-01,2024-01-31,1.0
1172,GHCND:USC00027390,"SAFFORD AGRICULTURAL CENTER, AZ US",32.815,-109.6808,900.4,METERS,1948-08-01,2024-01-31,1.0
1173,GHCND:USC00027398,"SAGUARO NATIONAL PARK, AZ US",32.1794,-110.7363,938.8,METERS,2009-06-01,2024-03-13,0.9999
1174,GHCND:USC00027435,"SAINT JOHNS, AZ US",34.5181,-109.4012,1764.8,METERS,1901-08-01,2024-03-10,1.0
1175,GHCND:USC00027480,"SAN CARLOS RESERVOIR, AZ US",33.1819,-110.5261,771.8,METERS,1900-10-01,2024-01-31,1.0
1176,GHCND:USC00027488,"SANDERS, AZ US",35.2239,-109.3222,1784.0,METERS,1949-01-01,2024-01-31,1.0
1177,GHCND:USC00027530,"SAN MANUEL, AZ US",32.60135,-110.62908,1042.4,METERS,1954-06-01,2024-03-13,1.0
1178,GHCND:USC00027560,"SAN SIMON, AZ US",32.29325,-109.22667,1090.9,METERS,1898-03-01,2024-03-13,1.0
1180,GHCND:USC00027619,"SASABE, AZ US",31.483,-111.5436,1094.2,METERS,1959-02-01,2024-03-13,1.0
1181,GHCND:USC00027625,"SASABE 6 NNE, AZ US",31.5716,-111.5055,1065.3,METERS,1987-01-01,2023-12-31,1.0
1183,GHCND:USC00027716,"SELIGMAN, AZ US",35.33186,-112.87947,1600.2,METERS,1904-01-01,2024-03-13,1.0
1184,GHCND:USC00027855,"SHOW LOW AIRPORT, AZ US",34.2639,-110.0075,1954.1,METERS,1965-12-01,2024-03-13,1.0
1185,GHCND:USC00027880,"SIERRA VISTA, AZ US",31.53699,-110.28073,1403.9,METERS,1982-03-01,2024-03-13,1.0
1189,GHCND:USC00028162,"SPRINGERVILLE, AZ US",34.1311,-109.275,2133.0,METERS,1911-01-01,2024-03-13,1.0
1190,GHCND:USC00028214,"STEWART MOUNTAIN DAM, AZ US",33.559,-111.53658,433.4,METERS,1939-06-01,2024-03-13,1.0
1191,GHCND:USC00028326,"SUNRISE MOUNTAIN, AZ US",33.9733,-109.563,2856.0,METERS,1971-11-01,2024-02-09,0.5185
1192,GHCND:USC00028329,"SUNSET CRATER NATIONAL MONUMENT, AZ US",35.3694,-111.5436,2127.5,METERS,1969-12-01,2024-03-13,1.0
1193,GHCND:USC00028396,"TACNA 3 NE, AZ US",32.7225,-113.9191,98.8,METERS,1969-02-01,2024-03-13,1.0
1194,GHCND:USC00028468,"TEEC NOS POS, AZ US",36.9233,-109.09,1612.4,METERS,1962-06-01,2024-02-29,1.0
1195,GHCND:USC00028499,"TEMPE ASU, AZ US",33.42544,-111.92168,355.7,METERS,1953-01-01,2024-03-13,1.0
1198,GHCND:USC00028590,"TOHONO CHUL, AZ US",32.3391,-110.9808,770.2,METERS,2009-06-01,2024-03-12,0.9999
1199,GHCND:USC00028619,"TOMBSTONE, AZ US",31.7119,-110.0686,1420.1,METERS,1893-07-01,2024-03-06,1.0
1202,GHCND:USC00028795,"TUCSON 17 NW, AZ US",32.2541,-111.1961,780.6,METERS,1982-01-01,2024-03-10,1.0
1205,GHCND:USC00028865,"TUMACACORI NM, AZ US",31.5677,-111.0497,995.8,METERS,1946-04-01,2024-01-31,1.0
1206,GHCND:USC00028904,"TUZIGOOT, AZ US",34.7705,-112.0263,1057.7,METERS,1977-01-01,2024-03-03,1.0
1209,GHCND:USC00029156,"WALNUT CANYON NATIONAL MONUMENT, AZ US",35.1721,-111.5097,2040.6,METERS,1910-10-01,2024-03-13,1.0
1210,GHCND:USC00029158,"WALNUT CREEK, AZ US",34.9281,-112.8097,1551.4,METERS,1915-12-01,2024-02-29,1.0
1213,GHCND:USC00029309,"WIKIEUP, AZ US",34.7055,-113.6124,612.6,METERS,1925-07-01,2024-03-13,1.0
1214,GHCND:USC00029334,"WILLCOX, AZ US",32.2553,-109.8369,1271.0,METERS,1898-01-01,2024-03-07,1.0
1215,GHCND:USC00029359,"WILLIAMS, AZ US",35.2413,-112.1929,2105.9,METERS,1897-01-01,2024-03-13,1.0
1218,GHCND:USC00029542,"WUPATKI NM, AZ US",35.51974,-111.37181,1496.0,METERS,1940-01-01,2024-03-13,1.0
1220,GHCND:USC00029634,"YOUNGTOWN, AZ US",33.59434,-112.30067,345.9,METERS,1964-01-01,2024-03-12,1.0
1222,GHCND:USC00029656,"YUMA QUARTERMASTER DEPOT, AZ US",32.72793,-114.62217,48.8,METERS,1993-01-01,2024-01-31,1.0
1223,GHCND:USR0000AALP,"ALPINE ARIZONA, AZ US",33.8417,-109.1222,2447.8,METERS,2000-02-01,2024-02-06,1.0
1224,GHCND:USR0000ABLA,"BLACK HILLS ARIZONA, AZ US",33.0867,-109.9506,1005.8,METERS,1988-12-01,2024-02-06,1.0
1225,GHCND:USR0000ABRK,"BLACK ROCK ARIZONA, AZ US",36.7944,-113.7567,2158.0,METERS,1992-05-01,2024-02-06,0.9965
1226,GHCND:USR0000ABUC,"BUCKSKIN MOUNTAIN ARIZONA, AZ US",36.9306,-112.1997,1950.7,METERS,1994-09-01,2024-02-06,1.0
1227,GHCND:USR0000ACAA,"CARR ARIZONA, AZ US",31.445,-110.28,1645.9,METERS,1999-06-01,2024-02-06,0.9652
1228,GHCND:USR0000ACAN,"BRIGHT ANGEL ARIZONA, AZ US",36.2047,-112.0622,2479.2,METERS,1995-06-01,2024-02-06,0.8519
1229,GHCND:USR0000ACHE,"CHERRY ARIZONA, AZ US",34.5964,-112.0481,1554.5,METERS,1998-02-01,2024-02-06,1.0
1230,GHCND:USR0000ACHR,"CHIRICAHUA ARIZONA, AZ US",32.0,-109.35,1645.9,METERS,1995-01-01,2024-02-06,0.9962
1231,GHCND:USR0000ACOL,"COLUMBINE ARIZONA, AZ US",32.7039,-109.9139,2902.0,METERS,1991-12-01,2024-02-06,0.9828
1232,GHCND:USR0000ACRO,"CROWN KING ARIZONA, AZ US",34.2083,-112.3333,1798.3,METERS,1995-02-01,2024-02-06,1.0
1233,GHCND:USR0000ADRL,"DRY LAKE ARIZONA, AZ US",33.3597,-109.8331,2264.1,METERS,1997-10-01,2024-02-06,0.9775
1234,GHCND:USR0000ADRY,"DRY PARK ARIZONA, AZ US",36.45,-112.24,2653.6,METERS,1996-05-01,2024-02-06,0.9372
1235,GHCND:USR0000AEMP,"EMPIRE ARIZONA, AZ US",31.7806,-110.6347,1417.3,METERS,1988-12-01,2024-02-06,1.0
1236,GHCND:USR0000AFAP,"MOUNTAIN LION ARIZONA, AZ US",33.7011,-109.7058,1671.2,METERS,2001-11-01,2024-02-06,0.9886
1237,GHCND:USR0000AFLG,"FLAGSTAFF ARIZONA, AZ US",35.145,-111.675,2133.6,METERS,1986-01-01,2024-02-06,0.8173
1238,GHCND:USR0000AFOU,"FOUR SPRINGS ARIZONA, AZ US",36.7939,-112.0422,1999.5,METERS,1994-09-01,2024-02-06,1.0
1239,GHCND:USR0000AFRA,"FRAZIER WELLS ARIZONA, AZ US",35.8456,-113.055,2063.5,METERS,1999-11-01,2024-02-06,1.0
1240,GHCND:USR0000AGLO,"GLOBE ARIZONA, AZ US",33.3503,-110.6519,1112.5,METERS,1990-03-01,2024-02-06,0.7757
1241,GHCND:USR0000AGOO,"GOODWIN MESA ARIZONA, AZ US",34.75,-113.3,1280.2,METERS,1985-01-01,2024-02-06,0.9974
1242,GHCND:USR0000AGRE,"GREER ARIZONA, AZ US",34.06,-109.45,2499.4,METERS,1992-12-01,2024-02-06,1.0
1243,GHCND:USR0000AGUN,"GUNSIGHT ARIZONA, AZ US",36.7044,-112.5833,1609.3,METERS,1994-09-01,2024-02-06,1.0
1244,GHCND:USR0000AGUT,"GUTHRIE ARIZONA, AZ US",32.8819,-109.3092,1097.3,METERS,1985-07-01,2024-02-06,0.9999
1245,GHCND:USR0000AHAV,"HAVASU ARIZONA, AZ US",34.7872,-114.5617,144.8,METERS,1994-11-01,2024-02-06,1.0
1246,GHCND:USR0000AHBR,"HEBER ARIZONA, AZ US",34.3978,-110.5644,2022.3,METERS,2000-02-01,2024-02-06,0.995
1247,GHCND:USR0000AHIL,"HILLTOP ARIZONA, AZ US",33.6183,-110.42,1743.5,METERS,2000-11-01,2024-02-06,0.9948
1248,GHCND:USR0000AHOR,"HORSE CAMP CANYON ARIZONA, AZ US",32.9375,-110.4961,1231.4,METERS,1987-06-01,2024-02-06,0.9999
1250,GHCND:USR0000AHPI,"HOPI ARIZONA, AZ US",35.8103,-110.2069,1885.5,METERS,2002-08-01,2024-02-06,0.9695
1251,GHCND:USR0000AHPK,"HOPKINS ARIZONA, AZ US",31.6753,-110.88,2170.2,METERS,2001-10-01,2024-02-06,1.0
1252,GHCND:USR0000AHUM,"HUMBUG CREEK ARIZONA, AZ US",34.1164,-112.3006,1600.2,METERS,1985-07-01,2024-02-06,0.9999
1253,GHCND:USR0000AHUR,"HURRICANE ARIZONA, AZ US",36.6992,-113.2072,1659.6,METERS,1994-09-01,2024-02-06,1.0
1254,GHCND:USR0000AIRO,"IRON SPRINGS ARIZONA, AZ US",34.5853,-112.5019,1804.4,METERS,1986-01-01,2024-02-06,0.821
1255,GHCND:USR0000ALAK,"LAKESIDE ARIZONA, AZ US",34.16,-109.98,2133.6,METERS,1986-01-01,2024-02-06,0.9257
1256,GHCND:USR0000ALBE,"LINDBERGH HILL ARIZONA, AZ US",36.2858,-112.0794,2682.2,METERS,1992-07-01,2024-02-06,0.8245
1257,GHCND:USR0000ALIM,"LIMESTONE CANYON ARIZONA, AZ US",34.1789,-110.2736,2072.6,METERS,1985-05-01,2024-02-06,0.9164
1258,GHCND:USR0000AMOL,"MORMON LAKE ARIZONA, AZ US",34.9067,-111.445,2255.5,METERS,1996-10-01,2024-02-06,1.0
1259,GHCND:USR0000AMOS,"MOSS BASIN ARIZONA, AZ US",35.0336,-113.8925,1804.4,METERS,1992-06-01,2024-02-06,1.0
1260,GHCND:USR0000AMTL,"MOUNT LOGAN ARIZONA, AZ US",36.3472,-113.1989,2194.6,METERS,1985-01-01,2024-02-06,1.0
1261,GHCND:USR0000AMUL,"MULESHOE RANCH ARIZONA, AZ US",32.4,-110.2708,1272.5,METERS,1988-04-01,2024-02-06,1.0
1262,GHCND:USR0000AMUS,"MUSIC MOUNTAIN ARIZONA, AZ US",35.6147,-113.7939,1652.0,METERS,1996-03-01,2024-02-06,0.9999
1263,GHCND:USR0000ANIX,"NIXON FLATS ARIZONA, AZ US",36.39,-113.1522,1981.2,METERS,1992-01-01,2024-02-06,0.9932
1264,GHCND:USR0000ANOO,"NOON CREEK ARIZONA, AZ US",32.6678,-109.7881,1501.1,METERS,2001-07-01,2024-02-06,0.9999
1265,GHCND:USR0000AOAK,"OAK CREEK ARIZONA, AZ US",34.9417,-111.7517,1500.8,METERS,1992-12-01,2024-02-06,0.9251
1266,GHCND:USR0000AOLA,"OLAF KNOLLS ARIZONA, AZ US",36.5072,-113.8161,883.9,METERS,1985-05-01,2024-02-06,0.9811
1267,GHCND:USR0000APAR,"PARIA POINT ARIZONA, AZ US",36.7278,-111.8219,2205.2,METERS,1994-09-01,2024-02-06,1.0
1268,GHCND:USR0000APAY,"PAYSON ARIZONA, AZ US",34.2431,-111.3028,1516.4,METERS,1992-05-01,2024-02-06,0.9999
1269,GHCND:USR0000APLE,"PLEASANT VALLEY ARIZONA, AZ US",34.0933,-110.9333,1539.2,METERS,1997-04-01,2024-02-06,1.0
1270,GHCND:USR0000APRO,"PROMONTORY ARIZONA, AZ US",34.3694,-111.025,2377.4,METERS,1992-12-01,2024-02-06,0.9286
1271,GHCND:USR0000ARIN,"RINCON ARIZONA, AZ US",32.2056,-110.5481,2511.6,METERS,1994-06-01,2024-02-06,0.9885
1273,GHCND:USR0000ARUC,"RUCKER ARIZONA, AZ US",31.7611,-109.3486,1737.4,METERS,2000-05-01,2024-02-06,0.958
1274,GHCND:USR0000ASAG,"SAGUARO ARIZONA, AZ US",32.3167,-110.8133,944.9,METERS,1995-06-01,2024-02-06,0.9085
1275,GHCND:USR0000ASAS,"SASABE ARIZONA, AZ US",31.6908,-111.45,1066.8,METERS,1992-03-01,2024-02-06,0.9999
1276,GHCND:USR0000ASCA,"SAN CARLOS NUMBER 1 ARIZONA, AZ US",33.3717,-110.4569,846.4,METERS,2002-01-01,2024-02-06,1.0
1277,GHCND:USR0000ASES,"SELLES ARIZONA, AZ US",31.91,-111.8975,721.2,METERS,2002-03-01,2024-02-06,0.982
1278,GHCND:USR0000ASMI,"SMITH PEAK ARIZONA, AZ US",34.1158,-113.3472,762.0,METERS,1988-12-01,2024-02-06,1.0
1279,GHCND:USR0000ASOL,"SOLLERS ARIZONA, AZ US",32.4033,-110.7117,2377.4,METERS,1999-04-01,2024-02-06,0.9313
1280,GHCND:USR0000ASTA,"STANTON ARIZONA, AZ US",34.1667,-112.7333,1097.3,METERS,1985-01-01,2024-02-06,1.0
1281,GHCND:USR0000ASTH,"STRAY HORSE ARIZONA, AZ US",33.5406,-109.3169,2139.7,METERS,2002-10-01,2024-02-06,1.0
1282,GHCND:USR0000ASUN,"SUNSET POINT ARIZONA, AZ US",34.1953,-112.1417,902.2,METERS,1994-05-01,2024-02-06,0.9999
1283,GHCND:USR0000ATRA,"TRAIL CABIN ARIZONA, AZ US",33.2667,-109.3683,1913.8,METERS,1992-11-01,2024-02-06,0.9788
1284,GHCND:USR0000ATRU,"TRUXTON CANYON ARIZONA, AZ US",35.7825,-113.7942,1630.7,METERS,2002-08-01,2024-02-06,0.8963
1285,GHCND:USR0000ATUS,"TUSAYAN ARIZONA, AZ US",35.99,-112.12,2042.2,METERS,1986-01-01,2024-02-06,0.9918
1286,GHCND:USR0000ATWE,"TWEEDS POINT ARIZONA, AZ US",36.5819,-113.7319,1585.0,METERS,1985-01-01,2024-02-06,0.9974
1287,GHCND:USR0000AUNI,"UNION PASS ARIZONA, AZ US",35.2247,-114.3747,1072.9,METERS,1994-05-01,2024-02-06,0.9999
1288,GHCND:USR0000AVER,"VERDE ARIZONA, AZ US",34.5539,-111.8492,944.9,METERS,1993-11-01,2024-02-06,1.0
1289,GHCND:USR0000AWAR,"WARM SPRINGS CANYON ARIZONA, AZ US",36.7,-112.23,2441.4,METERS,1986-05-01,2024-02-06,0.7495
1290,GHCND:USR0000AYEL,"YELLOW JOHN MOUNTAIN ARIZONA, AZ US",36.1542,-113.5417,1877.6,METERS,1987-12-01,2024-02-06,1.0
1291,GHCND:USS0009N05S,"BEAVER SPRING, AZ US",36.33,-109.06,2804.2,METERS,2009-09-30,2024-03-08,1.0
1292,GHCND:USS0009S01S,"BALDY, AZ US",33.98,-109.5,2781.3,METERS,1978-09-30,2024-03-08,1.0
1293,GHCND:USS0009S02S,"MAVERICK FORK, AZ US",33.92,-109.46,2804.2,METERS,1978-09-30,2024-03-08,1.0
1294,GHCND:USS0009S04S,"NUTRIOSO, AZ US",33.9,-109.16,2590.8,METERS,2008-06-01,2024-03-08,1.0
1295,GHCND:USS0009S06S,"BEAVER HEAD, AZ US",33.69,-109.22,2435.4,METERS,1994-05-01,2024-03-08,0.9999
1296,GHCND:USS0009S07S,"CORONADO TRAIL, AZ US",33.8,-109.15,2560.3,METERS,1978-12-30,2024-03-08,1.0
1297,GHCND:USS0009S11S,"HANNAGAN MEADOWS, AZ US",33.65,-109.31,2749.3,METERS,1978-11-24,2024-03-08,0.9961
1298,GHCND:USS0009S18S,"WILDCAT, AZ US",33.76,-109.48,2392.7,METERS,1984-07-01,2024-03-08,1.0
1299,GHCND:USS0010R04S,"HEBER, AZ US",34.31,-110.75,2328.7,METERS,1979-08-01,2024-03-08,0.9827
1300,GHCND:USS0010S01S,"WORKMAN CREEK, AZ US",33.81,-110.92,2103.1,METERS,1978-10-11,2024-03-08,1.0
1301,GHCND:USS0011P02S,"FORT VALLEY, AZ US",35.27,-111.74,2240.3,METERS,2008-06-01,2024-03-08,1.0
1302,GHCND:USS0011P08S,"SNOWSLIDE CANYON, AZ US",35.34,-111.65,2965.7,METERS,1997-09-01,2024-01-09,1.0
1303,GHCND:USS0011P13S,"FRY, AZ US",35.07,-111.84,2194.6,METERS,1978-10-01,2024-03-08,1.0
1304,GHCND:USS0011R03S,"MORMON MOUNTAIN, AZ US",34.94,-111.52,2286.0,METERS,1978-09-30,2024-03-08,0.998
1305,GHCND:USS0011R05S,"HAPPY JACK, AZ US",34.75,-111.41,2325.6,METERS,1999-06-01,2024-01-09,0.9873
1306,GHCND:USS0011R06S,"BAKER BUTTE, AZ US",34.46,-111.41,2225.0,METERS,1978-09-30,2024-03-08,1.0
1307,GHCND:USS0011R10S,"PROMONTORY, AZ US",34.37,-111.01,2417.1,METERS,1980-05-01,2024-03-08,0.9993
1308,GHCND:USS0011R12S,"MORMON MOUNTAIN SUMMIT, AZ US",34.97,-111.51,2590.8,METERS,2008-06-01,2024-03-08,1.0
1310,GHCND:USS0012P01S,"CHALENDER, AZ US",35.26,-112.06,2164.1,METERS,2009-05-01,2024-03-08,0.9998
1311,GHCND:USS0012P02S,"WHITE HORSE LAKE, AZ US",35.14,-112.15,2188.5,METERS,1978-10-01,2024-03-08,0.998
1312,GHCND:USW00003029,"WINDOW ROCK AIRPORT, AZ US",35.65708,-109.06028,2055.2,METERS,1998-08-01,2024-03-13,1.0
1315,GHCND:USW00003103,"FLAGSTAFF AIRPORT, AZ US",35.14427,-111.66637,2133.3,METERS,1893-01-01,2024-03-13,1.0
1317,GHCND:USW00003125,"YUMA PROVING GROUND, AZ US",32.8356,-114.3942,98.8,METERS,1955-01-01,2024-03-11,1.0
1318,GHCND:USW00003145,"YUMA MCAS, AZ US",32.65,-114.61667,64.9,METERS,1982-01-01,2024-03-13,1.0
1319,GHCND:USW00003162,"PAGE MUNICIPAL AIRPORT, AZ US",36.92112,-111.44874,1307.0,METERS,1997-06-01,2024-03-12,1.0
1320,GHCND:USW00003184,"PHOENIX DEER VALLEY MUNICIPAL AIRPORT, AZ US",33.69021,-112.06616,453.4,METERS,1998-09-01,2024-03-13,1.0
1322,GHCND:USW00003192,"SCOTTSDALE MUNICIPAL AIRPORT, AZ US",33.61234,-111.92317,436.1,METERS,2001-11-01,2024-03-13,1.0
1323,GHCND:USW00003195,"GRAND CANYON NATIONAL PARK AIRPORT, AZ US",35.94581,-112.15536,1993.3,METERS,1996-07-01,2024-03-13,1.0
1324,GHCND:USW00003196,"NOGALES INTERNATIONAL AIRPORT, AZ US",31.42076,-110.84655,1193.0,METERS,1999-07-01,2024-03-13,1.0
1325,GHCND:USW00023160,"TUCSON INTERNATIONAL AIRPORT, AZ US",32.13153,-110.95638,777.6,METERS,1946-01-01,2024-03-14,1.0
1326,GHCND:USW00023183,"PHOENIX AIRPORT, AZ US",33.4278,-112.00365,339.2,METERS,1933-06-01,2024-03-14,1.0
1327,GHCND:USW00023184,"PRESCOTT LOVE FIELD, AZ US",34.64915,-112.42234,1527.8,METERS,1948-01-01,2024-03-13,1.0
1328,GHCND:USW00023194,"WINSLOW AIRPORT, AZ US",35.02795,-110.72206,1489.2,METERS,1898-10-01,2024-03-14,1.0
1332,GHCND:USW00053131,"TUCSON 11 W, AZ US",32.2395,-111.1696,833.0,METERS,2002-09-01,2024-03-13,1.0
1333,GHCND:USW00053132,"ELGIN 5 S, AZ US",31.5907,-110.5087,1466.4,METERS,2002-09-01,2024-03-13,1.0
1334,GHCND:USW00053146,"FORT HUACHUCA PIONEER AIRFIELD, AZ US",31.60563,-110.42809,1445.4,METERS,2008-01-01,2024-03-12,0.9404
1335,GHCND:USW00053154,"YUMA 27 ENE, AZ US",32.835,-114.1884,189.0,METERS,2008-03-01,2024-03-13,1.0
1336,GHCND:USW00053155,"WILLIAMS 35 NNW, AZ US",35.7552,-112.3374,1825.8,METERS,2008-06-01,2024-03-13,1.0
1351,GHCND:USW00093026,"DOUGLAS BISBEE INTERNATIONAL AIRPORT, AZ US",31.4583,-109.6061,1251.2,METERS,1948-01-01,2024-03-14,1.0
1352,GHCND:USW00093027,"ST JOHNS INDUSTRIAL AIR PARK, AZ US",34.51838,-109.38006,1745.6,METERS,1999-05-01,2024-03-12,1.0
1353,GHCND:USW00093084,"SAFFORD MUNICIPAL AIRPORT, AZ US",32.85654,-109.63603,967.8,METERS,1998-01-01,2024-03-13,1.0
1354,GHCND:USW00093139,"PAYSON, AZ US",34.2326,-111.3446,1478.3,METERS,1940-01-01,2024-03-13,1.0
1355,GHCND:USW00093167,"KINGMAN AIRPORT, AZ US",35.25745,-113.93405,1043.5,METERS,1996-07-01,2024-03-13,1.0
1475,GHCND:USC00030006,"ABBOTT, AR US",35.0237,-94.1594,207.3,METERS,1941-01-01,2024-03-09,1.0
1476,GHCND:USC00030064,"ALICIA 2 NNE, AR US",35.9307,-91.055,78.6,METERS,1905-05-01,2024-03-13,1.0
1477,GHCND:USC00030130,"ALUM FORK, AR US",34.7961,-92.8417,212.8,METERS,1937-01-01,2024-03-13,1.0
1479,GHCND:USC00030220,"ARKADELPHIA 2 N, AR US",34.1433,-93.0589,59.7,METERS,1891-03-01,2024-03-13,1.0
1481,GHCND:USC00030240,"ARKANSAS POST, AR US",34.025,-91.3444,59.1,METERS,1963-01-01,2023-12-31,1.0
1482,GHCND:USC00030286,"ASHDOWN 4 SSE, AR US",33.6195,-94.0994,97.5,METERS,1893-04-01,2024-03-12,1.0
1484,GHCND:USC00030458,"BATESVILLE LVSTK, AR US",35.8306,-91.7944,174.0,METERS,1941-07-01,2024-03-12,1.0
1485,GHCND:USC00030460,"BATESVILLE LOCK AND DAM 1, AR US",35.7595,-91.6384,88.4,METERS,1904-07-01,2024-03-13,1.0
1486,GHCND:USC00030536,"BEEDEVILLE 4 NE, AR US",35.45858,-91.05664,66.4,METERS,1940-03-01,2024-03-13,1.0
1487,GHCND:USC00030582,"BENTON, AR US",34.56801,-92.60053,105.5,METERS,1907-03-01,2024-03-13,1.0
1488,GHCND:USC00030616,"BERRYVILLE 6 NW, AR US",36.413,-93.6462,338.3,METERS,1946-01-01,2023-07-31,1.0
1490,GHCND:USC00030664,"BIG FORK 1 SSE, AR US",34.4619,-93.9983,365.8,METERS,1944-01-01,2024-03-13,1.0
1491,GHCND:USC00030746,"BLACK ROCK, AR US",36.1367,-91.1171,101.8,METERS,1892-02-01,2024-03-13,1.0
1492,GHCND:USC00030764,"BLAKELY MOUNTAIN DAM, AR US",34.57036,-93.19435,129.8,METERS,1950-05-01,2024-03-13,1.0
1493,GHCND:USC00030798,"BLUE MOUNTAIN DAM, AR US",35.1161,-93.6506,129.8,METERS,1939-09-01,2024-03-13,1.0
1497,GHCND:USC00030832,"BOONEVILLE 3 SSE, AR US",35.0971,-93.9147,171.9,METERS,1978-01-01,2024-03-09,1.0
1499,GHCND:USC00031102,"CABOT, AR US",34.9818,-92.0064,91.4,METERS,1918-01-01,2024-03-12,1.0
1500,GHCND:USC00031132,"CALICO ROCK 2 WSW, AR US",36.10919,-92.16417,109.4,METERS,1904-01-01,2024-03-13,1.0
1501,GHCND:USC00031140,"CALION LOCK AND DAM, AR US",33.30527,-92.48655,29.0,METERS,1985-09-01,2024-03-13,1.0
1502,GHCND:USC00031152,"CAMDEN 1, AR US",33.59,-92.8236,35.4,METERS,1886-01-01,2024-03-13,1.0
1503,GHCND:USC00031191,"CANE CREEK STATE PARK, AR US",33.9153,-91.7711,79.2,METERS,1998-01-01,2024-03-13,1.0
1506,GHCND:USC00031457,"CLARKSVILLE 6 NE, AR US",35.5328,-93.4036,259.1,METERS,1986-01-01,2024-03-13,1.0
1508,GHCND:USC00031596,"CONWAY, AR US",35.1034,-92.4903,95.1,METERS,1890-08-01,2024-03-14,1.0
1509,GHCND:USC00031632,"CORNING, AR US",36.40832,-90.59167,75.0,METERS,1893-01-01,2024-03-13,1.0
1510,GHCND:USC00031730,"CROSSETT 2 SSE, AR US",33.1111,-91.948,54.9,METERS,1915-02-01,2023-09-10,1.0
1511,GHCND:USC00031750,"CRYSTAL VALLEY, AR US",34.6886,-92.45,108.2,METERS,1941-12-01,2024-03-13,1.0
1512,GHCND:USC00031834,"DANVILLE, AR US",35.0375,-93.3947,114.3,METERS,1916-01-01,2024-03-13,1.0
1513,GHCND:USC00031838,"DARDANELLE, AR US",35.2342,-93.1675,112.8,METERS,1886-06-01,2024-03-13,1.0
1517,GHCND:USC00031948,"DEQUEEN, AR US",34.0463,-94.348,124.1,METERS,1902-06-01,2024-03-11,1.0
1519,GHCND:USC00031968,"DES ARC, AR US",34.9772,-91.4978,61.0,METERS,1903-09-01,2024-03-13,1.0
1520,GHCND:USC00032015,"DIERKS, AR US",34.1266,-94.0172,143.3,METERS,1959-07-01,2024-02-27,1.0
1522,GHCND:USC00032355,"EUDORA, AR US",33.1144,-91.2627,41.1,METERS,1962-03-01,2023-02-28,1.0
1524,GHCND:USC00032366,"EVENING SHADE 1 NNE, AR US",36.0803,-91.6146,156.7,METERS,1923-01-01,2024-03-06,1.0
1526,GHCND:USC00032444,"FAYETTEVILLE EXPERIMENTAL STATION, AR US",36.10104,-94.17365,387.1,METERS,1890-05-01,2024-03-04,1.0
1527,GHCND:USC00032540,"FORDYCE, AR US",33.82278,-92.39889,70.1,METERS,1911-04-01,2024-03-13,1.0
1528,GHCND:USC00032544,"FOREMAN, AR US",33.7222,-94.3975,128.9,METERS,1917-01-01,2024-03-11,0.3965
1529,GHCND:USC00032794,"GILBERT, AR US",35.9885,-92.7161,184.7,METERS,1924-07-01,2024-03-12,1.0
1530,GHCND:USC00032930,"GRAVETTE, AR US",36.4261,-94.448,384.0,METERS,1898-04-01,2024-01-31,1.0
1532,GHCND:USC00032978,"GREERS FERRY DAM, AR US",35.5206,-91.9997,160.6,METERS,1960-10-01,2024-03-13,1.0
1534,GHCND:USC00033132,"HARDY, AR US",36.2747,-91.5056,121.9,METERS,1897-08-01,2024-03-12,1.0
1535,GHCND:USC00033164,"HARRISON, AR US",36.1955,-93.1061,345.0,METERS,1891-11-01,2024-02-29,1.0
1537,GHCND:USC00033242,"HELENA, AR US",34.52093,-90.59037,66.4,METERS,1892-10-01,2024-01-31,1.0
1538,GHCND:USC00033428,"HOPE 3 NE, AR US",33.7092,-93.5563,114.3,METERS,1892-03-01,2024-03-04,1.0
1539,GHCND:USC00033466,"HOT SPRINGS 1 NNE, AR US",34.5129,-93.0487,190.8,METERS,1875-08-01,2024-03-12,1.0
1541,GHCND:USC00033600,"JASPER, AR US",36.00559,-93.18775,269.7,METERS,1948-01-01,2024-03-13,0.9951
1542,GHCND:USC00033734,"JONESBORO 2 NE, AR US",35.849,-90.6589,94.5,METERS,1890-01-01,2024-02-14,1.0
1543,GHCND:USC00033821,"KEISER, AR US",35.67432,-90.08416,68.0,METERS,1959-01-01,2024-02-14,1.0
1544,GHCND:USC00033862,"KEO, AR US",34.6033,-91.9927,70.4,METERS,1948-01-01,2024-03-13,1.0
1545,GHCND:USC00033909,"KINGSTON 2 S, AR US",36.0086,-93.5205,653.8,METERS,2006-01-01,2024-03-13,1.0
1546,GHCND:USC00034010,"LAKE MAUMELLE, AR US",34.8511,-92.4889,93.0,METERS,1957-01-01,2024-02-17,1.0
1547,GHCND:USC00034106,"LEAD HILL, AR US",36.4194,-92.9158,253.0,METERS,1927-12-01,2024-03-13,1.0
1549,GHCND:USC00034185,"LEWISVILLE, AR US",33.3613,-93.5674,103.6,METERS,1991-01-01,2024-03-12,1.0
1551,GHCND:USC00034548,"MAGNOLIA, AR US",33.25859,-93.18224,113.4,METERS,1948-01-01,2024-03-13,1.0
1552,GHCND:USC00034562,"MALVERN, AR US",34.3947,-92.8363,91.4,METERS,1883-04-01,2024-03-13,1.0
1553,GHCND:USC00034572,"MAMMOTH SPRING, AR US",36.4947,-91.535,153.0,METERS,1904-04-01,2024-03-13,1.0
1555,GHCND:USC00034638,"MARIANNA 2 S, AR US",34.73294,-90.76633,77.4,METERS,1899-01-01,2024-03-13,1.0
1556,GHCND:USC00034666,"MARSHALL, AR US",35.9118,-92.6564,289.9,METERS,1892-01-01,2024-03-13,1.0
1558,GHCND:USC00034756,"MENA, AR US",34.5979,-94.29,351.1,METERS,1890-12-01,2024-03-14,1.0
1559,GHCND:USC00034839,"MILLWOOD DAM, AR US",33.6772,-93.9902,96.3,METERS,1995-02-01,2024-03-13,1.0
1560,GHCND:USC00034938,"MORRILTON, AR US",35.158,-92.7672,103.6,METERS,1919-01-01,2024-03-13,1.0
1562,GHCND:USC00035018,"MOUNTAINBURG 2 NE, AR US",35.6494,-94.1541,241.7,METERS,1985-01-01,2024-03-11,1.0
1563,GHCND:USC00035036,"MOUNTAIN HOME 1 NNW, AR US",36.3458,-92.3939,243.8,METERS,1902-01-01,2024-03-13,1.0
1564,GHCND:USC00035046,"MOUNTAIN VIEW, AR US",35.8445,-92.0979,218.2,METERS,1924-06-01,2024-03-13,1.0
1565,GHCND:USC00035079,"MURFREESBORO 1 W, AR US",34.0784,-93.702,140.2,METERS,1970-08-01,2024-03-13,1.0
1567,GHCND:USC00035112,"NASHVILLE, AR US",33.9293,-93.8507,121.9,METERS,1899-06-01,2024-03-13,1.0
1568,GHCND:USC00035186,"NEWPORT, AR US",35.6042,-91.2744,69.5,METERS,1884-04-01,2024-03-13,1.0
1570,GHCND:USC00035200,"NIMROD DAM, AR US",34.9553,-93.1594,146.3,METERS,1939-10-01,2024-03-13,1.0
1571,GHCND:USC00035228,"NORFORK DAM, AR US",36.2494,-92.2383,129.5,METERS,1947-07-01,2024-03-13,0.2545
1574,GHCND:USC00035512,"OZARK 2, AR US",35.5125,-93.8683,253.0,METERS,1994-03-01,2024-03-13,1.0
1575,GHCND:USC00035514,"OZONE, AR US",35.6464,-93.4347,587.7,METERS,1890-08-01,2024-03-12,0.6227
1576,GHCND:USC00035563,"PARAGOULD 1 S, AR US",36.03299,-90.49198,86.0,METERS,1979-07-01,2024-03-13,1.0
1577,GHCND:USC00035691,"PERRY, AR US",35.0441,-92.7955,91.4,METERS,1964-10-01,2024-03-11,1.0
1578,GHCND:USC00035754,"PINE BLUFF, AR US",34.2255,-92.0185,70.1,METERS,1884-05-01,2024-03-13,1.0
1579,GHCND:USC00035820,"POCAHONTAS 1, AR US",36.2641,-90.9682,96.0,METERS,1871-07-01,2024-03-08,1.0
1580,GHCND:USC00035831,"POINSETT STATE PARK, AR US",35.53236,-90.68683,105.8,METERS,2000-05-01,2024-01-31,1.0
1581,GHCND:USC00035866,"PORTLAND, AR US",33.2511,-91.5058,39.0,METERS,1909-01-01,2024-03-13,1.0
1582,GHCND:USC00035908,"PRESCOTT 2 NNW, AR US",33.8204,-93.3879,93.9,METERS,1890-05-01,2023-08-09,1.0
1585,GHCND:USC00036253,"ROHWER 2 NNE, AR US",33.8102,-91.2777,45.7,METERS,1959-12-01,2024-01-31,1.0
1587,GHCND:USC00036376,"SAINT CHARLES, AR US",34.3702,-91.1241,61.0,METERS,1930-02-01,2024-03-04,1.0
1588,GHCND:USC00036403,"SALEM, AR US",36.3561,-91.8036,207.3,METERS,1955-04-01,2024-03-13,1.0
1589,GHCND:USC00036506,"SEARCY, AR US",35.2679,-91.7168,70.1,METERS,1892-09-01,2024-02-22,1.0
1590,GHCND:USC00036562,"SHERIDAN, AR US",34.30289,-92.3944,75.3,METERS,1977-01-01,2024-03-13,1.0
1593,GHCND:USC00036920,"STUTTGART 9 ESE, AR US",34.4744,-91.4172,60.4,METERS,1936-10-01,2024-03-13,1.0
1594,GHCND:USC00036928,"SUBIACO, AR US",35.3028,-93.6369,152.4,METERS,1897-09-01,2024-03-13,1.0
1595,GHCND:USC00037488,"WALDRON, AR US",34.9229,-94.0944,218.2,METERS,1919-08-01,2024-03-13,1.0
1596,GHCND:USC00037582,"WARREN 2 WSW, AR US",33.6044,-92.0997,64.0,METERS,1893-01-01,2024-01-31,1.0
1597,GHCND:USC00037712,"WEST MEMPHIS, AR US",35.12407,-90.18048,71.6,METERS,1962-01-01,2024-03-13,1.0
1598,GHCND:USC00037963,"WINSLOW 7 NE, AR US",35.855,-94.0202,667.2,METERS,2008-07-01,2024-03-13,0.9993
1600,GHCND:USC00038052,"WYNNE, AR US",35.25463,-90.79648,84.7,METERS,1908-01-01,2024-01-31,1.0
1602,GHCND:USR0000ABNV,"BOONEVILLE ARKANSAS, AR US",35.1428,-93.895,104.5,METERS,1998-04-01,2024-02-06,0.9953
1603,GHCND:USR0000ADVK,"DEVILS KNOB ARKANSAS, AR US",35.6111,-93.3333,640.1,METERS,1999-03-01,2023-01-09,0.9754
1604,GHCND:USR0000AJES,"JESSIEVILLE ARKANSAS, AR US",34.6578,-93.0703,274.3,METERS,1998-04-01,2024-02-06,0.9999
1605,GHCND:USR0000AODE,"ODEN ARKANSAS, AR US",34.6242,-93.8061,273.1,METERS,1998-06-01,2024-02-06,0.9906
1606,GHCND:USR0000ASIL,"SILVER HILL ARKANSAS, AR US",35.97,-92.7458,283.5,METERS,1998-05-01,2024-02-06,0.9766
1611,GHCND:USW00003918,"FLIPPIN MARION CO REGIONAL AIRPORT, AR US",36.29083,-92.59,219.2,METERS,1951-01-01,2024-03-12,0.3376
1612,GHCND:USW00003930,"LITTLE ROCK AFB, AR US",34.91667,-92.15,94.8,METERS,1956-01-01,2024-03-12,0.956
1613,GHCND:USW00003952,"NORTH LITTLE ROCK AIRPORT, AR US",34.8353,-92.2596,171.6,METERS,1976-11-01,2024-03-12,1.0
1614,GHCND:USW00003953,"JONESBORO MUNICIPAL AIRPORT, AR US",35.83567,-90.64424,78.9,METERS,1998-11-01,2024-03-13,1.0
1615,GHCND:USW00003962,"HOT SPRINGS ASOS, AR US",34.47551,-93.10413,154.0,METERS,1986-05-01,2024-03-13,1.0
1618,GHCND:USW00013963,"LITTLE ROCK AIRPORT ADAMS FIELD, AR US",34.72727,-92.2358,76.4,METERS,1938-04-01,2024-03-13,1.0
1619,GHCND:USW00013964,"FORT SMITH REGIONAL AIRPORT, AR US",35.33346,-94.36526,136.7,METERS,1945-09-01,2024-03-14,1.0
1620,GHCND:USW00013971,"HARRISON BOONE CO AIRPORT, AR US",36.26727,-93.15657,418.0,METERS,1948-01-01,2024-03-14,1.0
1621,GHCND:USW00013977,"TEXARKANA WEBB FIELD, AR US",33.45606,-93.98777,115.8,METERS,1892-02-01,2024-03-13,1.0
1622,GHCND:USW00023904,"BATESVILLE 8 WNW, AR US",35.8201,-91.7812,138.7,METERS,2006-12-01,2024-03-13,1.0
1623,GHCND:USW00053869,"BLYTHEVILLE MUNICIPAL AIRPORT, AR US",35.93778,-89.83318,77.6,METERS,1998-11-01,2024-03-13,1.0
1624,GHCND:USW00053918,"MOUNTAIN HOME BAXTER CO REGIONAL AIRPORT, AR US",36.37056,-92.47194,281.1,METERS,1998-11-01,2024-03-13,1.0
1625,GHCND:USW00053919,"MONTICELLO MUNICIPAL AIRPORT, AR US",33.63602,-91.7555,85.0,METERS,1876-01-01,2024-03-13,1.0
1626,GHCND:USW00053920,"RUSSELLVILLE MUNICIPAL AIRPORT, AR US",35.25733,-93.095,115.7,METERS,1999-01-01,2024-03-13,1.0
1627,GHCND:USW00053921,"MOUNT IDA, AR US",34.5467,-93.578,214.0,METERS,1999-03-01,2024-03-13,1.0
1628,GHCND:USW00053922,"FAYETTEVILLE SPRINGDALE NW AR REGL AIRPORT, AR US",36.28975,-94.31152,389.6,METERS,1999-04-01,2024-03-13,1.0
1629,GHCND:USW00053925,"DE QUEEN SEVIER CO AIRPORT, AR US",34.04799,-94.40157,106.6,METERS,2003-01-01,2024-03-13,1.0
1632,GHCND:USW00053959,"WEST MEMPHIS MUNICIPAL AIRPORT, AR US",35.14013,-90.23591,63.7,METERS,2002-12-01,2024-03-13,1.0
1635,GHCND:USW00093988,"PINE BLUFF GRIDER FIELD, AR US",34.17981,-91.93444,62.1,METERS,1948-01-01,2024-03-13,1.0
1636,GHCND:USW00093991,"WALNUT RIDGE MUNICIPAL AIRPORT, AR US",36.12528,-90.92444,83.2,METERS,1949-01-01,2024-03-12,0.3856
1637,GHCND:USW00093992,"EL DORADO GOODWIN FIELD, AR US",33.22072,-92.81404,78.0,METERS,1892-01-01,2024-03-13,1.0
1638,GHCND:USW00093993,"FAYETTEVILLE DRAKE FIELD, AR US",36.01027,-94.16824,377.1,METERS,1949-01-01,2024-03-13,1.0
1968,GHCND:USC00040029,"ADIN RANGER STATION, CA US",41.19334,-120.94458,1280.8,METERS,1894-03-01,2024-03-07,1.0
1969,GHCND:USC00040136,"ALPINE, CA US",32.8358,-116.7774,516.6,METERS,1952-10-01,2024-03-10,1.0
1970,GHCND:USC00040144,"ALTADENA, CA US",34.18211,-118.13827,343.5,METERS,1922-01-01,2024-01-31,1.0
1971,GHCND:USC00040161,"ALTURAS, CA US",41.49021,-120.54376,1332.9,METERS,1905-04-01,2023-03-21,1.0
1973,GHCND:USC00040176,"AMBOY, CA US",34.5594,-115.7443,200.6,METERS,1948-07-01,2024-03-07,0.833
1974,GHCND:USC00040192,"ANAHEIM, CA US",33.8647,-117.8425,70.7,METERS,1989-08-01,2024-03-10,1.0
1975,GHCND:USC00040212,"ANGWIN PACIFIC UNION COLLEGE, CA US",38.573,-122.4405,522.7,METERS,1940-01-01,2024-02-29,1.0
1977,GHCND:USC00040332,"ARVIN, CA US",35.2111,-118.8336,137.2,METERS,2008-08-01,2024-03-04,1.0
1978,GHCND:USC00040343,"ASH MOUNTAIN, CA US",36.4914,-118.8253,520.6,METERS,1927-01-01,2024-01-31,1.0
1979,GHCND:USC00040379,"AUBERRY 2 NW, CA US",37.0919,-119.5128,637.0,METERS,1915-01-01,2023-10-31,1.0
1980,GHCND:USC00040383,"AUBURN, CA US",38.9072,-121.0838,393.8,METERS,1905-01-01,2024-02-09,1.0
1982,GHCND:USC00040444,"BAKERSFIELD 5 NW, CA US",35.4186,-119.0508,143.3,METERS,1999-01-01,2024-03-13,1.0
1983,GHCND:USC00040449,"BALCH POWER HOUSE, CA US",36.9092,-119.0883,528.8,METERS,1950-02-01,2023-12-31,1.0
1985,GHCND:USC00040521,"BARSTOW, CA US",34.8927,-117.0219,676.7,METERS,1980-05-01,2024-03-13,1.0
1986,GHCND:USC00040673,"BEN LOMOND NUMBER 4, CA US",37.0855,-122.0797,128.0,METERS,1972-12-01,2024-03-13,1.0
1987,GHCND:USC00040693,"BERKELEY, CA US",37.8744,-122.2605,94.5,METERS,1893-01-01,2024-03-11,1.0
1989,GHCND:USC00040741,"BIG BEAR LAKE, CA US",34.243,-116.917,2058.3,METERS,1960-01-01,2024-03-11,1.0
1991,GHCND:USC00040790,"BIG SUR STATION, CA US",36.2472,-121.7802,61.0,METERS,1915-01-01,2024-03-13,1.0
1992,GHCND:USC00040798,"BIG TUJUNGA DAM FC46, CA US",34.29481,-118.18849,709.0,METERS,1932-01-01,2024-02-29,1.0
1993,GHCND:USC00040820,"ASPENDELL, CA US",37.2321,-118.5994,2581.7,METERS,2003-05-01,2024-03-11,0.7978
1994,GHCND:USC00040823,"BISHOP, CA US",37.37081,-118.36729,1251.5,METERS,1996-12-01,2024-03-12,0.3332
1995,GHCND:USC00040924,"BLYTHE, CA US",33.61389,-114.59789,81.7,METERS,1913-01-01,2023-10-31,1.0
1996,GHCND:USC00040931,"BOCA, CA US",39.3886,-120.0936,1699.3,METERS,1906-01-01,2024-03-13,1.0
1997,GHCND:USC00040943,"BODIE CALIFORNIA STATE HISTORIC PARK, CA US",38.2119,-119.0142,2551.2,METERS,1895-02-01,2023-09-30,1.0
1998,GHCND:USC00040983,"BORREGO DESERT PARK, CA US",33.2559,-116.4036,246.9,METERS,1942-07-01,2024-03-13,1.0
1999,GHCND:USC00041018,"BOWMAN DAM, CA US",39.4539,-120.6556,1641.3,METERS,1896-06-01,2024-01-28,1.0
2002,GHCND:USC00041159,"BUCKS CREEK, CA US",39.9372,-121.3147,576.4,METERS,1959-07-01,2024-01-31,1.0
2003,GHCND:USC00041194,"BURBANK VALLEY PUMP PLANT, CA US",34.1866,-118.348,199.6,METERS,1939-12-01,2024-03-12,0.988
2005,GHCND:USC00041244,"BUTTONWILLOW, CA US",35.4028,-119.47,68.6,METERS,1940-01-01,2024-03-12,1.0
2006,GHCND:USC00041253,"CACHUMA LAKE, CA US",34.58223,-119.98159,240.5,METERS,1952-01-01,2024-03-13,1.0
2007,GHCND:USC00041277,"CALAVERAS BIG TREES, CA US",38.2769,-120.3113,1431.0,METERS,1929-10-01,2024-01-27,1.0
2009,GHCND:USC00041312,"CALISTOGA, CA US",38.57682,-122.57811,106.7,METERS,1906-01-01,2024-03-06,1.0
2011,GHCND:USC00041424,"CAMPO, CA US",32.6263,-116.4699,801.6,METERS,1948-07-01,2024-03-13,0.9766
2012,GHCND:USC00041428,"CAMP PARDEE, CA US",38.2486,-120.8433,200.6,METERS,1926-07-01,2024-01-31,1.0
2015,GHCND:USC00041614,"CEDARVILLE, CA US",41.5301,-120.1791,1428.9,METERS,1894-01-01,2024-03-13,1.0
2016,GHCND:USC00041697,"CHERRY VALLEY DAM, CA US",37.9747,-119.9161,1452.4,METERS,1955-01-01,2024-01-31,1.0
2017,GHCND:USC00041700,"CHESTER, CA US",40.30209,-121.24391,1387.1,METERS,1909-10-01,2024-02-22,1.0
2018,GHCND:USC00041715,"CHICO UNIVERSITY FARM, CA US",39.6911,-121.8211,56.4,METERS,1906-01-01,2024-03-13,1.0
2019,GHCND:USC00041738,"CHIRIACO SUMMIT, CA US",33.6617,-115.7206,520.0,METERS,2008-03-01,2024-03-13,1.0
2020,GHCND:USC00041758,"CHULA VISTA, CA US",32.64,-117.0858,17.1,METERS,1918-09-01,2024-03-11,1.0
2021,GHCND:USC00041806,"CLEARLAKE 4 SE, CA US",38.9238,-122.5672,411.2,METERS,1954-01-01,2023-09-18,1.0
2022,GHCND:USC00041838,"CLOVERDALE, CA US",38.79296,-123.0263,121.9,METERS,1950-07-01,2024-03-05,1.0
2023,GHCND:USC00041864,"COALINGA, CA US",36.1356,-120.3606,204.2,METERS,1942-01-01,2023-10-31,1.0
2024,GHCND:USC00041907,"COLEMAN FISHERIES STATION, CA US",40.4,-122.1433,128.0,METERS,1943-01-01,2024-03-12,1.0
2025,GHCND:USC00041912,"COLFAX, CA US",39.0901,-120.947,723.3,METERS,1905-01-01,2024-01-31,1.0
2026,GHCND:USC00041916,"COLGATE POWERHOUSE, CA US",39.3308,-121.1922,181.4,METERS,1906-11-01,2024-01-31,1.0
2027,GHCND:USC00041948,"COLUSA 2 SSW, CA US",39.1875,-122.0269,15.2,METERS,1948-10-01,2024-01-31,1.0
2029,GHCND:USC00041990,"COPCO NUMBER 1 DAM, CA US",41.97983,-122.33811,812.3,METERS,1959-01-01,2023-03-24,1.0
2030,GHCND:USC00042012,"CORCORAN IRRIGATION DIST., CA US",36.0975,-119.5817,61.0,METERS,1948-01-01,2024-03-07,1.0
2033,GHCND:USC00042090,"COVINA CITY YARD FC387B, CA US",34.0918,-117.88012,185.0,METERS,1929-10-01,2024-01-31,1.0
2035,GHCND:USC00042214,"CULVER CITY, CA US",34.005,-118.4139,28.0,METERS,1935-01-01,2024-03-13,1.0
2036,GHCND:USC00042239,"CUYAMACA, CA US",32.9897,-116.5872,1414.3,METERS,1899-01-01,2023-12-31,1.0
2037,GHCND:USC00042294,"DAVIS 2 WSW EXPERIMENTAL FARM, CA US",38.5349,-121.7761,18.3,METERS,1893-01-01,2024-03-13,1.0
2038,GHCND:USC00042319,"DEATH VALLEY NATIONAL PARK, CA US",36.46263,-116.8672,-59.1,METERS,1961-04-01,2024-03-12,1.0
2039,GHCND:USC00042346,"DELANO, CA US",35.7683,-119.26,92.0,METERS,1906-01-01,2023-08-31,1.0
2041,GHCND:USC00042402,"DE SABLA, CA US",39.8716,-121.6108,826.0,METERS,1906-01-01,2024-01-31,1.0
2045,GHCND:USC00042500,"DOWNIEVILLE, CA US",39.5633,-120.8238,888.5,METERS,1908-09-01,2024-01-31,1.0
2048,GHCND:USC00042574,"DUNSMUIR TREATMENT PLANT, CA US",41.1831,-122.28167,661.1,METERS,1978-01-01,2024-03-13,1.0
2049,GHCND:USC00042598,"EAGLE MOUNTAIN, CA US",33.80807,-115.45138,296.6,METERS,1933-09-01,2024-03-13,1.0
2050,GHCND:USC00042706,"EL CAJON, CA US",32.8005,-116.928,150.9,METERS,1979-11-01,2024-01-10,1.0
2051,GHCND:USC00042709,"EL CAPITAN DAM, CA US",32.8856,-116.8149,182.9,METERS,1948-01-01,2023-08-16,1.0
2052,GHCND:USC00042713,"EL CENTRO 2 SSW, CA US",32.76688,-115.56237,-9.1,METERS,1932-03-01,2024-03-13,1.0
2056,GHCND:USC00042805,"ELSINORE, CA US",33.686,-117.3458,386.5,METERS,1897-03-01,2024-02-04,1.0
2057,GHCND:USC00042863,"ESCONDIDO NUMBER 2, CA US",33.121,-117.09,182.9,METERS,1979-05-01,2024-01-10,1.0
2058,GHCND:USC00042920,"EXCHEQUER DAM, CA US",37.353,-120.1623,128.0,METERS,1950-12-01,2024-03-11,1.0
2059,GHCND:USC00042934,"FAIRFIELD, CA US",38.2736,-122.0677,12.2,METERS,1950-01-01,2024-02-01,1.0
2060,GHCND:USC00042941,"FAIRMONT, CA US",34.705,-118.4297,932.7,METERS,1909-01-01,2024-01-31,1.0
2061,GHCND:USC00042964,"FALL RIVER MILLS, CA US",41.008,-121.435,1005.8,METERS,1923-05-01,2024-01-29,1.0
2062,GHCND:USC00043083,"FIVE POINTS 5 SSW, CA US",36.3642,-120.1561,86.9,METERS,1942-12-01,2024-01-31,1.0
2063,GHCND:USC00043134,"FORESTHILL RANGER STATION, CA US",39.01,-120.8455,919.0,METERS,1937-12-01,2024-03-11,1.0
2064,GHCND:USC00043157,"FORT BIDWELL, CA US",41.8715,-120.1574,1444.4,METERS,1867-06-01,2024-03-10,1.0
2065,GHCND:USC00043161,"FORT BRAGG 5 N, CA US",39.51,-123.75639,37.5,METERS,1895-01-01,2024-03-11,1.0
2066,GHCND:USC00043182,"FORT JONES RANGER STATION, CA US",41.60104,-122.84775,831.8,METERS,1936-01-01,2024-03-13,0.999
2067,GHCND:USC00043191,"FORT ROSS, CA US",38.515,-123.2447,34.1,METERS,1895-10-01,2024-02-29,1.0
2069,GHCND:USC00043244,"FREMONT, CA US",37.5422,-122.0158,11.6,METERS,1996-06-01,2024-03-13,1.0
2070,GHCND:USC00043256,"FRESNO 5 NE, CA US",36.7672,-119.7092,103.0,METERS,1999-01-01,2024-03-13,1.0
2071,GHCND:USC00043261,"FRIANT GOVERNMENT CAMP, CA US",36.99574,-119.70691,131.1,METERS,1912-01-01,2024-03-13,1.0
2073,GHCND:USC00043384,"GEORGETOWN RANGER STATION, CA US",38.933,-120.8008,914.7,METERS,1946-11-01,2023-11-20,1.0
2075,GHCND:USC00043402,"GIBRALTAR DAM NUMBER 2, CA US",34.5225,-119.6822,474.9,METERS,1958-01-01,2024-01-31,1.0
2076,GHCND:USC00043417,"GILROY, CA US",37.003,-121.5608,59.1,METERS,1906-01-01,2023-06-03,1.0
2077,GHCND:USC00043463,"GLENNVILLE, CA US",35.7269,-118.7006,957.1,METERS,1951-01-01,2024-01-29,1.0
2078,GHCND:USC00043491,"GOLD RUN 4 SW, CA US",39.15014,-120.90026,981.5,METERS,1905-01-01,2024-01-31,1.0
2079,GHCND:USC00043551,"GRANT GROVE, CA US",36.73751,-118.96197,2005.6,METERS,1940-07-01,2024-03-13,1.0
2080,GHCND:USC00043573,"GRASS VALLEY NUMBER 2, CA US",39.2041,-121.068,731.5,METERS,1966-01-01,2024-03-13,1.0
2081,GHCND:USC00043578,"GRATON, CA US",38.4305,-122.8647,61.0,METERS,1926-01-01,2023-11-30,1.0
2083,GHCND:USC00043669,"GROVELAND 2, CA US",37.8444,-120.2258,853.4,METERS,1948-07-01,2024-03-13,1.0
2085,GHCND:USC00043714,"HALF MOON BAY, CA US",37.4725,-122.4433,8.2,METERS,1939-07-01,2024-03-12,1.0
2086,GHCND:USC00043747,"HANFORD 1 S, CA US",36.3158,-119.637,72.2,METERS,1899-07-01,2024-03-12,1.0
2087,GHCND:USC00043761,"HAPPY CAMP RANGER STATION, CA US",41.79612,-123.37469,348.1,METERS,1914-01-01,2024-03-13,0.9641
2088,GHCND:USC00043800,"HARRY L. ENGLEBRIGHT DAM, CA US",39.2372,-121.2666,243.8,METERS,1955-07-01,2024-01-31,1.0
2089,GHCND:USC00043824,"HAT CREEK, CA US",40.9316,-121.5433,919.0,METERS,1921-01-01,2024-01-31,1.0
2090,GHCND:USC00043855,"HAYFIELD PUMPING PLANT, CA US",33.7044,-115.6289,417.6,METERS,1933-07-01,2024-03-13,1.0
2091,GHCND:USC00043875,"HEALDSBURG, CA US",38.62935,-122.86646,53.9,METERS,1893-02-01,2024-03-03,1.0
2092,GHCND:USC00043882,"HEARST CASTLE, CA US",35.6841,-121.1683,465.1,METERS,1999-01-01,2024-03-13,1.0
2093,GHCND:USC00043896,"HEMET, CA US",33.7381,-116.8939,552.0,METERS,1917-01-01,2023-12-31,1.0
2094,GHCND:USC00043914,"HENSHAW DAM, CA US",33.2372,-116.7614,823.0,METERS,1942-09-01,2024-03-13,1.0
2096,GHCND:USC00043939,"HETCH HETCHY, CA US",37.9613,-119.783,1179.6,METERS,1910-10-01,2024-01-31,1.0
2097,GHCND:USC00044025,"HOLLISTER 2, CA US",36.8483,-121.4213,83.8,METERS,1948-07-01,2024-03-11,1.0
2100,GHCND:USC00044211,"IDYLLWILD FIRE DEPARTMENT, CA US",33.7572,-116.7066,1639.8,METERS,1943-10-01,2024-01-07,1.0
2101,GHCND:USC00044223,"IMPERIAL, CA US",32.8488,-115.5666,-19.5,METERS,1901-11-01,2024-01-31,1.0
2103,GHCND:USC00044259,"INDIO FIRE STATION, CA US",33.7086,-116.2152,-6.4,METERS,1894-03-01,2024-01-04,1.0
2105,GHCND:USC00044297,"IRON MOUNTAIN, CA US",34.1472,-115.1219,281.0,METERS,1935-01-01,2024-01-31,1.0
2106,GHCND:USC00044303,"IRVINE RANCH, CA US",33.72,-117.723,164.6,METERS,2003-08-01,2024-03-11,1.0
2107,GHCND:USC00044374,"JESS VALLEY, CA US",41.2706,-120.29845,1621.2,METERS,1948-08-01,2024-03-13,1.0
2108,GHCND:USC00044394,"JOHNSON VALLEY, CA US",34.3591,-116.5378,965.3,METERS,2008-01-01,2024-03-13,1.0
2109,GHCND:USC00044405,"JOSHUA TREE, CA US",34.1471,-116.2747,781.2,METERS,1959-01-01,2024-03-12,1.0
2110,GHCND:USC00044412,"JULIAN CDF, CA US",33.0763,-116.5925,1284.7,METERS,1893-01-01,2024-01-07,1.0
2111,GHCND:USC00044422,"JUNCAL DAM, CA US",34.4908,-119.5069,688.8,METERS,1941-06-01,2024-03-08,1.0
2112,GHCND:USC00044500,"KENTFIELD, CA US",37.9566,-122.5447,44.2,METERS,1902-01-01,2024-03-13,1.0
2114,GHCND:USC00044534,"KETTLEMAN CITY, CA US",36.0067,-119.96,73.2,METERS,1955-02-01,2024-03-11,1.0
2115,GHCND:USC00044555,"KING CITY, CA US",36.2069,-121.1377,97.5,METERS,1902-01-01,2024-03-13,1.0
2117,GHCND:USC00044712,"LAKE SOLANO, CA US",38.492,-122.0039,57.0,METERS,1975-08-01,2024-03-13,1.0
2118,GHCND:USC00044838,"LAVA BEDS NAT MON, CA US",41.71171,-121.5067,1455.4,METERS,1959-10-01,2023-10-30,1.0
2119,GHCND:USC00044863,"LEBEC, CA US",34.83328,-118.86497,1089.7,METERS,1948-07-01,2023-09-30,1.0
2120,GHCND:USC00044881,"LEE VINING, CA US",37.9567,-119.1194,2071.7,METERS,1988-05-01,2024-03-13,1.0
2121,GHCND:USC00044890,"LEMON COVE, CA US",36.3817,-119.0264,156.4,METERS,1899-01-01,2024-03-13,1.0
2122,GHCND:USC00044957,"LINDSAY, CA US",36.2032,-119.0545,132.6,METERS,1913-01-01,2024-01-31,1.0
2123,GHCND:USC00044997,"LIVERMORE, CA US",37.68194,-121.75139,161.2,METERS,1903-01-01,2024-03-03,1.0
2124,GHCND:USC00045026,"LODGEPOLE, CA US",36.6044,-118.7325,2052.8,METERS,1968-01-01,2024-03-13,1.0
2126,GHCND:USC00045064,"LOMPOC, CA US",34.6538,-120.4513,22.9,METERS,1917-03-01,2024-02-29,1.0
2129,GHCND:USC00045118,"LOS BANOS, CA US",37.0563,-120.8666,36.6,METERS,1906-03-01,2024-03-13,1.0
2130,GHCND:USC00045119,"LOS BANOS ARBURUA RANCH, CA US",36.8749,-120.9386,256.9,METERS,1932-01-01,2024-01-31,1.0
2132,GHCND:USC00045233,"MADERA, CA US",36.9539,-120.0378,82.3,METERS,1928-01-01,2023-08-31,1.0
2135,GHCND:USC00045311,"MANZANITA LAKE, CA US",40.5411,-121.5766,1752.6,METERS,1949-01-01,2024-01-20,1.0
2136,GHCND:USC00045360,"MARKLEY COVE, CA US",38.4916,-122.1241,146.3,METERS,1970-03-01,2024-03-13,1.0
2139,GHCND:USC00045449,"MCCLOUD, CA US",41.2516,-122.13824,985.4,METERS,1909-10-01,2024-03-13,1.0
2140,GHCND:USC00045502,"MECCA FIRE STATION, CA US",33.5697,-116.073,-55.8,METERS,1905-09-01,2024-01-05,1.0
2141,GHCND:USC00045532,"MERCED, CA US",37.2888,-120.5158,46.9,METERS,1899-01-01,2024-03-11,1.0
2142,GHCND:USC00045598,"MIDDLETOWN, CA US",38.74774,-122.62583,341.7,METERS,1893-01-01,2024-03-12,1.0
2143,GHCND:USC00045679,"MINERAL, CA US",40.3458,-121.6091,1485.9,METERS,1909-01-01,2024-01-31,1.0
2146,GHCND:USC00045756,"MOJAVE, CA US",35.0492,-118.1619,833.6,METERS,1904-01-01,2023-08-31,1.0
2148,GHCND:USC00045795,"MONTEREY, CA US",36.5927,-121.8555,37.2,METERS,1906-01-01,2024-03-12,1.0
2151,GHCND:USC00045860,"MORONGO VALLEY NORTH, CA US",34.0864,-116.5622,958.6,METERS,2009-01-01,2024-03-14,1.0
2152,GHCND:USC00045866,"MORRO BAY FIRE DEPARTMENT, CA US",35.367,-120.8447,36.0,METERS,1959-01-01,2024-02-29,1.0
2154,GHCND:USC00045915,"MOUNT DIABLO JUNCTION, CA US",37.8792,-121.9303,661.4,METERS,1952-01-01,2024-01-31,1.0
2155,GHCND:USC00045933,"MOUNT HAMILTON, CA US",37.34336,-121.63473,1286.3,METERS,1948-01-01,2024-03-12,1.0
2156,GHCND:USC00045941,"MOUNT HEBRON RANGER STATION, CA US",41.78339,-122.0446,1300.0,METERS,1907-01-01,2024-02-21,0.6728
2157,GHCND:USC00045968,"MOUNT LAGUNA NUMBER 3, CA US",32.8672,-116.4194,1804.4,METERS,2003-11-01,2024-01-07,1.0
2158,GHCND:USC00045983,"MOUNT SHASTA, CA US",41.32175,-122.31725,1101.2,METERS,1948-01-01,2024-03-12,0.9681
2160,GHCND:USC00046027,"MUIR WOODS, CA US",37.8977,-122.5688,67.1,METERS,1940-12-01,2024-02-29,1.0
2161,GHCND:USC00046074,"NAPA STATE HOSPITAL, CA US",38.2777,-122.2647,10.7,METERS,1893-01-01,2024-03-13,1.0
2162,GHCND:USC00046136,"NEVADA CITY, CA US",39.2466,-121.0008,847.6,METERS,1893-02-01,2024-03-13,1.0
2164,GHCND:USC00046154,"NEW CUYAMA FIRE STATION, CA US",34.9455,-119.6827,658.4,METERS,1974-01-01,2024-03-08,1.0
2167,GHCND:USC00046168,"NEWMAN, CA US",37.2811,-121.0177,27.4,METERS,1902-01-01,2024-01-31,1.0
2168,GHCND:USC00046174,"NEW MELONES DAM HQ, CA US",38.0047,-120.4863,292.6,METERS,1992-03-01,2024-03-12,1.0
2169,GHCND:USC00046175,"NEWPORT BEACH HARBOR, CA US",33.6031,-117.8836,3.0,METERS,1921-01-01,2024-03-12,1.0
2170,GHCND:USC00046197,"NILAND, CA US",33.2775,-115.5239,-18.3,METERS,1914-09-01,2024-01-31,1.0
2172,GHCND:USC00046252,"NORTH FORK RANGER STATION, CA US",37.2329,-119.5097,806.2,METERS,1904-01-01,2024-03-13,1.0
2174,GHCND:USC00046336,"OAKLAND MUSEUM, CA US",37.7983,-122.2642,9.1,METERS,1970-10-01,2024-03-12,1.0
2176,GHCND:USC00046386,"OCOTILLO WELLS 2 W, CA US",33.1552,-116.1688,118.9,METERS,2003-01-01,2024-01-07,1.0
2177,GHCND:USC00046399,"OJAI, CA US",34.4477,-119.2275,227.1,METERS,1905-05-01,2024-03-07,1.0
2179,GHCND:USC00046506,"ORLAND, CA US",39.7458,-122.1997,77.4,METERS,1903-03-01,2024-03-13,1.0
2180,GHCND:USC00046508,"ORLEANS, CA US",41.30206,-123.53851,122.8,METERS,1903-04-01,2024-03-11,1.0
2181,GHCND:USC00046521,"OROVILLE, CA US",39.5177,-121.553,52.1,METERS,1953-01-01,2024-02-20,1.0
2182,GHCND:USC00046572,"OXNARD WEATHER FORECAST OFFICE, CA US",34.2066,-119.1375,15.8,METERS,1998-05-01,2024-02-29,1.0
2183,GHCND:USC00046597,"PACIFIC HOUSE, CA US",38.7583,-120.503,1051.6,METERS,1941-11-01,2023-04-30,1.0
2185,GHCND:USC00046602,"PACOIMA DAM FC33A E, CA US",34.3294,-118.4005,472.4,METERS,1943-05-01,2024-02-29,1.0
2187,GHCND:USC00046624,"PALMDALE, CA US",34.5883,-118.0938,796.1,METERS,1903-01-01,2024-02-29,1.0
2188,GHCND:USC00046635,"PALM SPRINGS, CA US",33.8275,-116.5097,129.5,METERS,1906-03-01,2023-12-31,1.0
2190,GHCND:USC00046657,"PALOMAR MOUNTAIN OBSERVATORY, CA US",33.378,-116.84,1691.6,METERS,1901-01-01,2024-03-12,1.0
2192,GHCND:USC00046699,"PARKER RESERVOIR, CA US",34.2903,-114.1708,224.9,METERS,1934-01-01,2024-02-26,1.0
2193,GHCND:USC00046719,"PASADENA, CA US",34.1483,-118.1447,263.3,METERS,1893-01-01,2024-01-31,1.0
2194,GHCND:USC00046730,"PASO ROBLES, CA US",35.6277,-120.6855,222.5,METERS,1894-01-01,2024-03-13,1.0
2195,GHCND:USC00046773,"PEARBLOSSOM, CA US",34.5025,-117.8969,945.2,METERS,1985-06-01,2024-02-21,1.0
2196,GHCND:USC00046826,"PETALUMA AIRPORT, CA US",38.2577,-122.6077,6.1,METERS,1893-01-01,2024-03-13,1.0
2198,GHCND:USC00046926,"PINNACLES NATIONAL PARK, CA US",36.4819,-121.1822,398.4,METERS,1937-01-01,2024-03-11,1.0
2199,GHCND:USC00046946,"PIT RIVER PH 5, CA US",40.9869,-121.9772,444.4,METERS,1945-01-01,2024-01-31,1.0
2203,GHCND:USC00047085,"PORTOLA, CA US",39.8053,-120.4719,1478.3,METERS,1915-01-01,2024-03-13,1.0
2204,GHCND:USC00047109,"POTTER VALLEY POWERHOUSE, CA US",39.3619,-123.1286,310.3,METERS,1937-09-01,2024-03-13,1.0
2205,GHCND:USC00047111,"POWAY VALLEY, CA US",33.01953,-117.03096,197.5,METERS,1893-01-01,2023-12-31,1.0
2207,GHCND:USC00047195,"QUINCY, CA US",39.9366,-120.9475,1042.4,METERS,1895-01-01,2024-03-13,1.0
2209,GHCND:USC00047253,"RANDSBURG, CA US",35.3692,-117.6525,1088.1,METERS,1937-09-01,2024-01-15,1.0
2210,GHCND:USC00047306,"REDLANDS, CA US",34.037,-117.1948,429.8,METERS,1898-01-01,2024-03-08,1.0
2212,GHCND:USC00047339,"REDWOOD CITY, CA US",37.4767,-122.2386,9.4,METERS,1906-01-01,2024-03-12,1.0
2215,GHCND:USC00047414,"RICHMOND, CA US",37.9191,-122.3772,6.1,METERS,1950-01-01,2024-03-13,1.0
2216,GHCND:USC00047470,"RIVERSIDE FIRE STATION 3, CA US",33.9511,-117.388,256.0,METERS,1893-01-01,2024-01-09,1.0
2218,GHCND:USC00047643,"SAINT HELENA, CA US",38.5066,-122.4713,68.6,METERS,1907-01-01,2023-04-30,1.0
2220,GHCND:USC00047672,"SALINAS DAM, CA US",35.3372,-120.5038,424.3,METERS,1948-07-01,2024-01-31,1.0
2221,GHCND:USC00047681,"SALSIPUEDES GAGING STATION, CA US",34.58511,-120.40826,77.4,METERS,1948-01-01,2024-02-29,1.0
2222,GHCND:USC00047702,"SAN ANDREAS 2, CA US",38.19127,-120.67075,335.3,METERS,1948-07-01,2024-03-13,0.4075
2223,GHCND:USC00047741,"SAN DIEGO SEAWORLD, CA US",32.76536,-117.2315,4.3,METERS,1999-05-01,2024-01-03,1.0
2224,GHCND:USC00047767,"SAN FRANCISCO OCEANSIDE, CA US",37.728,-122.5052,2.4,METERS,1948-07-01,2024-02-29,1.0
2225,GHCND:USC00047776,"SAN GABRIEL CANYON PH, CA US",34.1553,-117.9078,226.8,METERS,1917-01-01,2024-03-08,1.0
2226,GHCND:USC00047779,"SAN GABRIEL DAM FC425B E, CA US",34.2052,-117.8608,451.4,METERS,1948-07-01,2024-01-31,1.0
2227,GHCND:USC00047785,"SAN GABRIEL FIRE DEPARTMENT, CA US",34.0842,-118.1003,110.6,METERS,1939-01-01,2024-03-08,1.0
2228,GHCND:USC00047813,"SAN JACINTO, CA US",33.7965,-116.9753,464.8,METERS,1948-07-01,2024-01-07,1.0
2230,GHCND:USC00047851,"SAN LUIS OBISPO POLY, CA US",35.3056,-120.6619,93.9,METERS,1893-02-01,2024-03-13,1.0
2232,GHCND:USC00047880,"SAN RAFAEL CIVIC CENTER, CA US",37.9983,-122.5372,36.6,METERS,1894-01-01,2024-03-12,1.0
2233,GHCND:USC00047888,"SANTA ANA FIRE STATION, CA US",33.7442,-117.8667,41.1,METERS,1906-01-01,2024-01-04,1.0
2234,GHCND:USC00047902,"SANTA BARBARA, CA US",34.4167,-119.6844,4.9,METERS,1893-01-01,2024-03-13,1.0
2236,GHCND:USC00047933,"SANTA MARGARITA BOOST, CA US",35.3741,-120.6375,349.9,METERS,1942-12-01,2024-01-31,1.0
2238,GHCND:USC00047965,"SANTA ROSA, CA US",38.45579,-122.71335,50.6,METERS,1902-06-01,2024-03-13,1.0
2239,GHCND:USC00048014,"SAUGUS POWER PLANT 1, CA US",34.58998,-118.45412,658.7,METERS,1918-07-01,2024-03-13,1.0
2241,GHCND:USC00048045,"SCOTIA, CA US",40.4833,-124.1038,41.5,METERS,1926-01-01,2024-03-07,1.0
2242,GHCND:USC00048122,"SHAFTER 6 E, CA US",35.4867,-119.1458,123.1,METERS,2009-08-01,2024-02-25,1.0
2243,GHCND:USC00048135,"SHASTA DAM, CA US",40.7141,-122.4161,327.7,METERS,1943-01-01,2024-03-13,1.0
2245,GHCND:USC00048218,"SIERRAVILLE RANGER STATION, CA US",39.5833,-120.3705,1516.4,METERS,1909-01-01,2024-03-13,1.0
2246,GHCND:USC00048273,"SKYLINE RIDGE PRESERVE, CA US",37.3133,-122.185,691.9,METERS,1995-01-01,2024-02-29,1.0
2247,GHCND:USC00048351,"SONOMA, CA US",38.2994,-122.4622,29.6,METERS,1893-01-01,2024-02-29,1.0
2248,GHCND:USC00048353,"SONORA, CA US",37.9672,-120.3872,510.5,METERS,1903-12-01,2024-03-13,1.0
2249,GHCND:USC00048380,"SO ENTRANCE YOSEMITE N.P., CA US",37.5122,-119.6331,1538.3,METERS,1941-07-01,2023-11-30,1.0
2254,GHCND:USC00048587,"STONY GORGE RESERVOIR, CA US",39.5861,-122.5341,243.8,METERS,1926-11-01,2024-03-13,1.0
2255,GHCND:USC00048606,"STRAWBERRY VALLEY 2, CA US",39.53194,-121.1611,1130.8,METERS,1948-11-01,2024-03-13,1.0
2256,GHCND:USC00048702,"SUSANVILLE 2 SW, CA US",40.4167,-120.6631,1283.8,METERS,1893-01-01,2024-03-13,1.0
2257,GHCND:USC00048713,"SUTTER HILL CDF, CA US",38.3772,-120.8008,483.4,METERS,1943-10-01,2024-03-11,1.0
2259,GHCND:USC00048758,"TAHOE CITY, CA US",39.1678,-120.1428,1898.9,METERS,1903-09-01,2024-03-13,1.0
2261,GHCND:USC00048829,"TEHACHAPI 4 SE, CA US",35.1011,-118.4222,1286.3,METERS,1997-01-01,2024-03-12,1.0
2263,GHCND:USC00048839,"TEJON RANCHO, CA US",35.0233,-118.7497,434.3,METERS,1895-01-01,2024-03-11,1.0
2265,GHCND:USC00048917,"THREE RIVERS EDISON PH 1, CA US",36.465,-118.8619,347.5,METERS,1948-07-01,2024-01-31,1.0
2266,GHCND:USC00048999,"TRACY CARBONA, CA US",37.6819,-121.3466,41.1,METERS,1906-01-01,2024-01-31,1.0
2267,GHCND:USC00049001,"TRACY PUMPING PLANT, CA US",37.79589,-121.58319,18.6,METERS,1955-02-01,2024-03-13,1.0
2268,GHCND:USC00049026,"TRINITY RIVER HATCHERY, CA US",40.7263,-122.7947,567.2,METERS,1974-08-01,2024-01-31,1.0
2269,GHCND:USC00049035,"TRONA, CA US",35.7636,-117.3908,516.6,METERS,1920-01-01,2024-03-13,1.0
2270,GHCND:USC00049040,"TRUCKEE TAHOE AIRPORT, CA US",39.318,-120.145,1798.3,METERS,2009-09-01,2024-01-31,1.0
2272,GHCND:USC00049053,"TULELAKE, CA US",41.95999,-121.47449,1230.8,METERS,1932-01-01,2024-03-13,1.0
2274,GHCND:USC00049073,"TURLOCK NUMBER 2, CA US",37.50193,-120.84566,31.4,METERS,1893-01-01,2024-01-31,1.0
2275,GHCND:USC00049099,"TWENTYNINE PALMS, CA US",34.128,-116.0369,602.0,METERS,1935-05-01,2023-12-31,1.0
2277,GHCND:USC00049111,"TWITCHELL DAM, CA US",34.988,-120.3211,177.4,METERS,1962-03-01,2024-03-12,1.0
2279,GHCND:USC00049152,"U C L A, CA US",34.0697,-118.4427,131.1,METERS,1933-03-01,2024-03-12,1.0
2280,GHCND:USC00049185,"UPPER SAN LEANDRO FILTERS, CA US",37.7719,-122.1675,120.1,METERS,1948-07-01,2024-02-29,1.0
2282,GHCND:USC00049219,"VALLEJO, CA US",38.1,-122.1869,103.9,METERS,1998-01-01,2024-03-13,0.624
2286,GHCND:USC00049325,"VICTORVILLE, CA US",34.52527,-117.29638,850.1,METERS,1917-01-01,2024-01-09,1.0
2288,GHCND:USC00049367,"VISALIA, CA US",36.32833,-119.2997,92.4,METERS,1895-02-01,2024-03-13,1.0
2289,GHCND:USC00049378,"VISTA, CA US",33.2354,-117.2322,131.1,METERS,1957-08-01,2024-01-09,1.0
2290,GHCND:USC00049390,"VOLTA PH, CA US",40.4583,-121.8663,676.7,METERS,1926-11-01,2024-02-21,1.0
2291,GHCND:USC00049452,"WASCO, CA US",35.5892,-119.352,88.7,METERS,1901-01-01,2024-03-13,1.0
2292,GHCND:USC00049473,"WATSONVILLE WATERWORKS, CA US",36.9308,-121.7691,29.0,METERS,1908-01-01,2024-02-24,1.0
2294,GHCND:USC00049582,"WEST POINT, CA US",38.3775,-120.5452,845.8,METERS,1894-02-01,2024-03-02,1.0
2295,GHCND:USC00049621,"WHISKEYTOWN RESERVOIR, CA US",40.6116,-122.528,394.7,METERS,1960-04-01,2024-03-13,1.0
2297,GHCND:USC00049694,"WILLOW CREEK 1 NW, CA US",40.9466,-123.6363,141.4,METERS,1968-09-01,2023-12-21,1.0
2298,GHCND:USC00049699,"WILLOWS 6 W, CA US",39.52316,-122.3048,71.3,METERS,1906-01-01,2024-03-12,1.0
2299,GHCND:USC00049742,"WINTERS, CA US",38.5252,-121.9777,41.1,METERS,1906-03-01,2024-03-13,1.0
2300,GHCND:USC00049781,"WOODLAND 1 WNW, CA US",38.6829,-121.794,20.4,METERS,1906-01-01,2024-03-11,1.0
2301,GHCND:USC00049785,"WOODLAND HILLS PIERCE COLLEGE, CA US",34.1819,-118.5744,240.8,METERS,1949-01-01,2024-03-08,1.0
2304,GHCND:USC00049855,"YOSEMITE PARK HEADQUARTERS, CA US",37.75027,-119.58972,1224.7,METERS,1905-01-01,2024-01-14,1.0
2306,GHCND:USC00049866,"YREKA, CA US",41.70303,-122.64132,825.7,METERS,1893-01-01,2024-03-13,1.0
2309,GHCND:USC00268186,"TOPAZ LAKE, NV US",38.7395,-119.518,1613.0,METERS,1957-01-01,2024-03-07,1.0
2310,GHCND:USR0000CABS,"ARBUCKLE BASIN CALIFORNIA, CA US",40.3983,-122.8333,579.1,METERS,1995-01-01,2024-02-06,0.9922
2311,GHCND:USR0000CACT,"ACTON CALIFORNIA, CA US",34.4458,-118.2,792.5,METERS,1995-01-01,2024-02-06,0.9962
2313,GHCND:USR0000CALD,"ALDER SPRINGS CALIFORNIA, CA US",39.6514,-122.7236,1310.6,METERS,1994-04-01,2024-02-06,0.9772
2314,GHCND:USR0000CALP,"ALPINE CALIFORNIA, CA US",32.8336,-116.7392,622.1,METERS,2001-04-01,2024-02-06,1.0
2315,GHCND:USR0000CALT,"LOS ALTOS CALIFORNIA, CA US",37.3581,-122.1472,196.6,METERS,1998-02-01,2024-02-06,0.9497
2317,GHCND:USR0000CANZ,"ANZA CALIFORNIA, CA US",33.555,-116.673,1194.8,METERS,1995-01-01,2024-02-06,1.0
2318,GHCND:USR0000CAPT,"ALDER POINT CALIFORNIA, CA US",40.1867,-123.5903,281.3,METERS,1991-07-01,2024-02-06,0.983
2319,GHCND:USR0000CARR,"ARROYO SECO MT. DIABLO CALIF, CA US",36.23,-121.4917,298.7,METERS,1996-05-01,2024-02-06,0.9999
2320,GHCND:USR0000CASC,"ASH CREEK CALIFORNIA, CA US",41.2769,-121.9794,975.4,METERS,1989-11-01,2024-02-06,0.9117
